,City,Country,Date,Latitude,Longitude,Temp,Temp Min,Temp Max,Pressure,Humidity,Clouds,Wind Speed,Max F
0,Inirida,CO,1577650668,3.87,-67.92,27.689999999999998,300.84,300.84,1005,94,97,1.17,81.842
1,Yellowknife,CA,1577650515,62.45,-114.38,-25.70999999999998,247.15,247.59,1020,75,75,5.7,-14.007999999999953
2,Mul,IN,1577650668,20.07,79.68,12.5,285.65,285.65,1015,44,95,1.28,54.5
3,Wajir,KE,1577650668,1.75,40.07,30.28000000000003,303.43,303.43,1008,43,100,2.69,86.50400000000005
4,Jasper,US,1577650668,33.83,-87.28,20.54000000000002,292.04,295.37,1007,100,90,5.62,71.99600000000005
5,Lebu,ET,1577650668,8.96,38.73,15.0,288.15,288.15,1027,54,20,5.1,59.0
6,Mao,DO,1577650669,19.55,-71.08,28.930000000000007,301.48,302.59,1013,66,40,5.7,84.99199999999999
7,Los Lunas,US,1577650669,34.81,-106.76,-1.8599999999999568,268.15,274.26,1016,42,75,6.7,33.998000000000026
8,Mataura,NZ,1577650669,-46.19,168.86,12.78000000000003,285.93,285.93,1014,80,100,5.81,55.004000000000055
9,Castro,CL,1577650421,-42.48,-73.76,21.0,294.15,294.15,1015,52,92,3.6,69.80000000000001
10,Belyy Yar,RU,1577650669,53.6,91.39,-26.99999999999997,246.15,246.15,1028,75,100,0.69,-16.59999999999995
11,Harnosand,SE,1577650669,62.63,17.94,2.420000000000016,271.15,279.26,1002,100,100,1.0,42.998000000000026
12,Port Elizabeth,US,1577650669,39.31,-74.98,8.210000000000036,279.82,283.15,1020,75,90,4.6,50.0
13,Pisco,PE,1577650379,-13.71,-76.2,22.110000000000014,295.15,295.37,1011,30,20,4.1,71.99600000000005
14,Klaksvik,FO,1577650670,62.23,-6.59,8.0,281.15,281.15,998,61,5,9.3,46.4
15,Grindavik,IS,1577650670,63.84,-22.43,2.0,275.15,275.15,993,78,75,6.7,35.6
16,Cayenne,GF,1577650670,4.94,-52.33,29.0,302.15,302.15,1008,70,75,6.2,84.2
17,Butaritari,KI,1577650670,3.07,172.79,28.700000000000045,301.85,301.85,1011,74,94,5.65,83.66000000000008
18,Albany,US,1577650567,42.65,-73.75,3.0100000000000477,274.15,278.15,1021,51,90,0.44,41.0
19,Rikitea,PF,1577650670,-23.12,-134.97,24.810000000000002,297.96,297.96,1017,76,96,3.52,76.65800000000002
20,Provideniya,RU,1577650670,64.42,-173.23,-11.0,262.15,262.15,1007,66,0,4.0,12.2
21,Alta Floresta,BR,1577650671,-9.87,-56.08,30.0,303.15,303.15,1008,70,20,2.6,86.0
22,Gerash,IR,1577650671,27.67,54.14,9.0,282.15,282.15,1018,81,0,2.44,48.2
23,Bluff,AU,1577650671,-23.58,149.07,22.590000000000032,295.74,295.74,1016,73,4,5.8,72.66200000000006
24,Saint-Philippe,CA,1577650671,45.36,-73.48,0.07000000000005002,272.04,274.15,1023,80,90,2.1,33.8
25,Ixtapa,MX,1577650671,20.71,-105.21,25.460000000000036,298.15,299.15,1014,57,75,2.6,78.80000000000001
26,Emerald,AU,1577650671,-23.53,148.16,20.79000000000002,293.71,294.15,1015,77,4,3.1,69.80000000000001
27,Slave Lake,CA,1577650671,55.28,-114.77,-9.0,264.15,264.15,1016,85,1,0.84,15.8
28,Chuy,UY,1577650672,-33.69,-53.46,25.189999999999998,298.34,298.34,1012,80,2,4.65,77.342
29,Punta Arenas,CL,1577650672,-53.16,-70.91,15.75,288.71,289.15,1008,48,2,7.2,60.8
30,Wangaratta,AU,1577650672,-36.36,146.32,21.910000000000025,293.15,300.93,1010,52,100,1.0,82.00400000000005
31,Tuatapere,NZ,1577650524,-46.13,167.69,12.78000000000003,285.93,285.93,1014,80,100,5.81,55.004000000000055
32,Ushuaia,AR,1577650672,-54.81,-68.31,13.0,286.15,286.15,1005,35,40,11.3,55.400000000000006
33,Cherskiy,RU,1577650672,68.75,161.3,-36.589999999999975,236.56,236.56,1033,100,100,0.62,-33.86199999999995
34,Maua,KE,1577650673,0.23,37.94,20.410000000000025,293.56,293.56,1012,78,42,2.67,68.73800000000006
35,Meulaboh,ID,1577650673,4.14,96.13,26.74000000000001,299.89,299.89,1009,83,0,3.26,80.13200000000002
36,Fort Nelson,CA,1577650673,58.81,-122.69,-20.99999999999997,252.15,252.15,1019,76,75,2.1,-5.799999999999947
37,Marystown,CA,1577650673,47.17,-55.16,1.670000000000016,274.82,274.82,1004,100,47,0.89,35.00600000000003
38,Rocha,UY,1577650406,-34.48,-54.34,26.24000000000001,299.39,299.39,1012,58,33,4.51,79.23200000000003
39,Kangaatsiaq,GL,1577650673,68.31,-53.46,-7.039999999999964,266.11,266.11,1009,76,100,2.67,19.328000000000067
40,Tual,ID,1577650674,-5.67,132.75,28.600000000000023,301.75,301.75,1010,71,100,2.94,83.48000000000005
41,Hamilton,CA,1577650674,43.26,-79.87,2.0600000000000023,273.15,277.04,1013,93,90,13.9,39.00200000000008
42,Kanigoro,ID,1577650674,-8.13,112.22,24.590000000000032,297.74,297.74,1009,87,100,0.21,76.26200000000006
43,Nikolskoye,RU,1577650674,59.7,30.79,-1.7699999999999818,271.15,271.48,1017,79,40,4.0,28.994000000000074
44,Canoa,CU,1577650674,22.56,-79.83,27.0,300.15,300.15,1013,74,40,4.1,80.6
45,Alofi,NU,1577650674,-19.06,-169.92,26.230000000000018,299.38,299.38,1009,82,99,9.35,79.21400000000003
46,Busselton,AU,1577650674,-33.64,115.35,9.830000000000041,281.48,283.71,1009,61,46,3.14,51.00800000000001
47,Port Alfred,ZA,1577650675,-33.59,26.89,21.110000000000014,294.26,294.26,1009,95,28,0.45,69.99800000000002
48,Manyana,AU,1577650675,-35.26,150.51,18.350000000000023,289.15,293.15,1013,100,90,1.5,68.0
49,Avarua,CK,1577650473,-21.21,-159.78,24.0,297.15,297.15,1009,83,100,3.6,75.2
50,Kapaa,US,1577650675,22.08,-159.32,26.160000000000025,298.71,300.15,1021,78,1,6.7,80.6
51,Esperance,AU,1577650675,-33.86,121.89,17.0,290.15,290.15,1014,59,90,7.2,62.6
52,Khatanga,RU,1577650676,71.98,102.47,-34.15999999999997,238.99,238.99,1013,96,100,2.98,-29.487999999999943
53,Atuona,PF,1577650506,-9.8,-139.03,26.890000000000043,300.04,300.04,1013,74,11,5.99,80.40200000000007
54,Hobart,AU,1577650394,-42.88,147.33,14.430000000000007,284.82,289.82,1006,87,20,5.46,62.00600000000003
55,Georgetown,GY,1577650544,6.8,-58.16,27.470000000000027,300.15,301.15,1009,78,40,4.1,82.4
56,Russell,US,1577650676,38.9,-98.86,-0.67999999999995,272.04,273.15,1004,92,90,9.3,32.0
57,Rafaela,AR,1577650676,-31.25,-61.49,24.700000000000045,297.04,298.71,1007,62,99,5.66,78.00800000000001
58,Carnarvon,ZA,1577650676,-30.97,22.13,18.640000000000043,291.79,291.79,1009,45,0,1.13,65.55200000000008
59,San Rafael,AR,1577650677,-34.61,-68.33,34.110000000000014,307.26,307.26,1005,26,83,7.35,93.39800000000002
60,Papar,MY,1577650677,5.73,115.93,25.49000000000001,298.15,299.15,1009,88,75,1.0,78.80000000000001
61,Comodoro Rivadavia,AR,1577650677,-45.87,-67.48,23.0,296.15,296.15,1011,38,24,6.7,73.4
62,Teguise,ES,1577650677,29.06,-13.56,20.0,293.15,293.15,1022,30,7,3.6,68.0
63,Soyo,AO,1577650677,-6.13,12.37,25.55000000000001,298.7,298.7,1010,84,100,0.34,77.99000000000002
64,Selizharovo,RU,1577650677,56.86,33.45,-6.069999999999993,267.08,267.08,1027,85,57,3.96,21.074000000000012
65,Ilulissat,GL,1577650677,69.22,-51.1,-9.0,264.15,264.15,1006,72,75,6.2,15.8
66,Arlit,NE,1577650524,18.74,7.39,18.189999999999998,291.34,291.34,1016,20,0,5.4,64.74199999999999
67,Ponta do Sol,BR,1577650678,-20.63,-46.0,24.720000000000027,297.87,297.87,1011,74,41,1.59,76.49600000000005
68,Gloversville,US,1577650398,43.05,-74.34,2.5500000000000114,273.71,277.15,1020,69,90,2.1,39.2
69,Bredasdorp,ZA,1577650678,-34.53,20.04,19.660000000000025,292.59,293.15,1013,72,100,3.6,68.0
70,Walvis Bay,NA,1577650380,-22.95,14.51,17.110000000000014,290.15,290.37,1011,82,0,4.6,62.99600000000005
71,Bandarbeyla,SO,1577650430,9.49,50.81,26.170000000000016,299.32,299.32,1012,83,82,6.12,79.10600000000002
72,Bethel,US,1577650519,60.79,-161.76,-30.639999999999986,241.15,244.15,991,67,1,4.1,-20.199999999999953
73,Ponta Delgada,PT,1577650679,37.73,-25.67,13.0,286.15,286.15,1021,76,20,3.1,55.400000000000006
74,Mongoumba,CD,1577650679,3.64,18.59,22.74000000000001,295.89,295.89,1009,26,0,0.56,72.93200000000002
75,Sao Miguel do Araguaia,BR,1577650679,-13.28,-50.16,27.510000000000048,300.66,300.66,1006,78,100,1.84,81.51800000000009
76,Vaini,IN,1577650679,15.34,74.49,18.090000000000032,291.24,291.24,1011,88,14,1.7,64.56200000000007
77,Puerto Ayora,EC,1577650679,-0.74,-90.35,25.060000000000002,296.48,300.15,1011,74,75,4.6,80.6
78,Hithadhoo,MV,1577650679,-0.6,73.08,28.220000000000027,301.37,301.37,1009,73,100,2.63,82.79600000000005
79,Sitka,US,1577650679,37.17,-99.65,2.7800000000000296,275.93,275.93,1011,64,88,9.39,37.004000000000055
80,Guerrero Negro,MX,1577650680,27.97,-114.04,17.980000000000018,291.13,291.13,1019,31,0,2.05,64.36400000000003
81,Longyearbyen,NO,1577650680,78.22,15.63,-9.0,264.15,264.15,991,66,75,4.6,15.8
82,Constitucion,MX,1577650680,23.99,-104.67,19.410000000000025,292.04,293.15,1020,11,20,3.6,68.0
83,Mugumu,TZ,1577650680,-1.84,34.67,16.850000000000023,290.0,290.0,1012,83,83,1.15,62.33000000000004
84,Geraldton,CA,1577650680,49.72,-86.95,-9.0,264.15,264.15,1014,85,90,7.7,15.8
85,Ushtobe,KZ,1577650680,45.25,77.98,2.910000000000025,276.06,276.06,1021,94,100,2.43,37.23800000000004
86,Bandarban,BD,1577650681,22.2,92.22,13.260000000000048,286.41,286.41,1015,91,31,0.94,55.86800000000009
87,Eregli,TR,1577650681,37.51,34.05,1.5600000000000023,274.71,274.71,1017,86,100,2.38,34.80800000000001
88,Madaoua,NE,1577650681,14.07,5.96,19.74000000000001,292.89,292.89,1014,14,0,4.12,67.53200000000001
89,Port Blair,IN,1577650681,11.67,92.75,27.03000000000003,300.18,300.18,1010,75,4,4.31,80.65400000000005
90,Port Hardy,CA,1577650681,50.7,-127.42,8.0,281.15,281.15,1014,87,75,9.8,46.4
91,Suihua,CN,1577650681,46.64,126.99,-25.899999999999977,247.25,247.25,1029,96,100,3.35,-14.619999999999962
92,Hinton,CA,1577650682,53.4,-117.57,-8.329999999999984,264.82,264.82,1018,85,24,1.57,17.00600000000003
93,New Norfolk,AU,1577650408,-42.78,147.06,14.439999999999998,284.82,289.82,1006,87,20,1.31,62.00600000000003
94,Vostok,RU,1577650682,46.45,135.83,-7.509999999999991,265.64,265.64,1018,97,100,1.16,18.482000000000014
95,Ribeira Grande,PT,1577650682,38.52,-28.7,13.0,286.15,286.15,1021,76,20,3.6,55.400000000000006
96,Grand Gaube,MU,1577650682,-20.01,57.66,24.710000000000036,297.59,298.15,1002,94,75,8.7,77.0
97,Samarai,PG,1577650682,-10.62,150.67,25.879999999999995,299.03,299.03,1011,76,47,0.57,78.584
98,Bambanglipuro,ID,1577650682,-7.95,110.28,24.55000000000001,297.7,297.7,1009,94,100,0.32,76.19000000000003
99,Primero de Enero,CU,1577650683,21.94,-78.43,26.0,299.15,299.15,1013,78,75,6.2,78.80000000000001
100,Chokurdakh,RU,1577650683,70.62,147.9,-34.73999999999998,238.41,238.41,1030,87,0,3.6,-30.531999999999968
101,Cabo San Lucas,MX,1577650644,22.89,-109.91,21.400000000000034,292.59,297.04,1018,56,5,3.6,75.00200000000008
102,Ibipeba,BR,1577650683,-11.64,-42.01,23.930000000000007,297.08,297.08,1007,67,97,1.28,75.07400000000001
103,Cervo,BR,1577650684,-22.19,-46.24,24.0,297.15,297.15,1017,83,40,1.39,75.2
104,Nome,US,1577650684,30.04,-94.42,16.560000000000002,287.59,290.93,1009,82,90,4.6,64.00400000000005
105,Cidreira,BR,1577650527,-30.17,-50.22,24.82000000000005,297.97,297.97,1011,86,0,6.45,76.6760000000001
106,Luderitz,NA,1577650526,-26.65,15.16,16.450000000000045,289.6,289.6,1011,92,0,9.11,61.610000000000085
107,Norman Wells,CA,1577650684,65.28,-126.83,-30.99999999999997,242.15,242.15,1022,67,75,3.1,-23.799999999999947
108,Kodiak,US,1577650684,39.95,-94.76,1.8900000000000432,273.71,276.48,1001,69,90,8.2,37.99400000000007
109,Gondal,IN,1577650684,21.96,70.8,13.720000000000027,286.87,286.87,1014,41,0,4.31,56.696000000000055
110,Hami,CN,1577650684,42.84,93.51,-7.779999999999973,265.37,265.37,1034,30,0,1.19,17.99600000000005
111,Saskylakh,RU,1577650464,71.97,114.09,-26.589999999999975,246.56,246.56,1012,96,97,3.48,-15.86199999999996
112,Naze,NG,1577650685,5.43,7.07,22.0,295.15,295.15,1008,78,34,2.65,71.6
113,Petropavlovsk-Kamchatskiy,RU,1577650685,53.05,158.65,-9.0,264.15,264.15,1022,66,100,2.0,15.8
114,Mar del Plata,AR,1577650606,-46.43,-67.52,19.370000000000005,292.52,292.52,1008,43,65,7.28,66.86600000000001
115,Mantua,IT,1577650685,45.16,10.79,2.490000000000009,273.15,277.59,1035,93,40,1.0,39.992
116,Maba,CN,1577650686,24.68,113.59,13.29000000000002,286.44,286.44,1019,79,0,0.95,55.92200000000004
117,Alyangula,AU,1577650686,-13.85,136.42,25.0,298.15,298.15,1009,100,0,2.38,77.0
118,Qaanaaq,GL,1577650686,77.48,-69.36,-19.50999999999999,253.64,253.64,995,87,100,0.63,-3.117999999999988
119,Ossora,RU,1577650686,59.24,163.07,-17.67999999999998,255.47,255.47,1024,58,2,0.86,0.17600000000003746
120,Khonsa,IN,1577650686,26.99,95.51,9.400000000000034,282.55,282.55,1020,66,0,1.75,48.92000000000006
121,Formosa,BR,1577650686,-15.55,-47.33,22.950000000000045,296.1,296.1,1009,85,17,1.87,73.31000000000009
122,Tuktoyaktuk,CA,1577650687,69.44,-133.03,-30.99999999999997,242.15,242.15,1017,74,40,6.2,-23.799999999999947
123,Zhigansk,RU,1577650687,66.77,123.37,-34.18999999999997,238.96,238.96,1031,93,100,9.89,-29.541999999999945
124,Mount Gambier,AU,1577650687,-37.83,140.78,26.0,299.15,299.15,1002,39,0,5.1,78.80000000000001
125,Olinda,AU,1577650687,-37.84,145.39,26.04000000000002,295.93,303.71,1006,30,25,8.2,87.00800000000001
126,San Quintin,PH,1577650526,17.54,120.52,20.860000000000014,294.01,294.01,1015,87,0,1.87,69.54800000000003
127,Hermanus,ZA,1577650687,-34.42,19.24,20.970000000000027,292.59,295.37,1009,81,75,2.24,71.99600000000005
128,Ahar,IR,1577650572,38.48,47.07,-0.9799999999999613,272.17,272.17,1024,76,98,1.39,30.236000000000068
129,Acapulco,MX,1577650688,16.86,-99.88,30.0,303.15,303.15,1010,70,75,3.6,86.0
130,Touros,BR,1577650409,-5.2,-35.46,29.0,302.15,302.15,1008,66,40,8.2,84.2
131,Dongsheng,CN,1577650688,29.72,112.52,7.930000000000007,281.08,281.08,1024,89,0,2.89,46.274000000000015
132,Inhambane,MZ,1577650688,-23.87,35.38,25.0,298.15,298.15,1013,78,20,2.1,77.0
133,Vao,EE,1577650688,59.1,26.19,2.980000000000018,276.13,276.13,1016,94,100,6.02,37.36400000000003
134,Labateca,CO,1577650688,7.3,-72.49,31.0,304.15,304.15,1010,55,40,5.7,87.80000000000001
135,East Wenatchee Bench,US,1577650688,47.43,-120.28,0.1500000000000341,270.93,275.15,1022,75,90,3.1,35.6
136,Katsuura,JP,1577650689,33.93,134.5,10.010000000000048,282.59,284.15,1022,93,90,3.6,51.8
137,Kruisfontein,ZA,1577650689,-34.0,24.73,18.75,291.9,291.9,1011,98,89,1.83,65.75
138,East London,ZA,1577650689,-33.02,27.91,22.610000000000014,295.76,295.76,1010,83,0,4.83,72.69800000000004
139,Atbasar,KZ,1577650689,51.81,68.36,-17.75999999999999,255.39,255.39,1021,95,91,3.76,0.03200000000001424
140,Saint-Francois,FR,1577650689,46.42,3.91,1.3700000000000045,273.15,275.37,1034,88,55,2.6,35.99600000000005
141,Shenjiamen,CN,1577650588,29.96,122.3,12.760000000000048,285.91,285.91,1023,85,100,5.97,54.96800000000009
142,Turan,RU,1577650690,52.15,93.92,-27.639999999999986,245.51,245.51,1046,88,100,1.75,-17.751999999999974
143,Sept-Iles,CA,1577650690,50.2,-66.38,-4.0,269.15,269.15,1018,49,20,4.1,24.8
144,Kavaratti,IN,1577650690,10.57,72.64,28.150000000000034,301.3,301.3,1009,69,39,0.16,82.67000000000007
145,Santa Cruz de la Palma,ES,1577650690,28.68,-17.76,19.620000000000005,291.48,294.15,1020,32,100,2.6,69.80000000000001
146,Labuhan,ID,1577650690,-2.54,115.51,23.370000000000005,296.52,296.52,1009,95,100,0.41,74.066
147,Kaitangata,NZ,1577650691,-46.28,169.85,13.890000000000043,287.04,287.04,1010,70,100,5.36,57.00200000000008
148,Arraial do Cabo,BR,1577650691,-22.97,-42.02,27.640000000000043,300.15,301.15,1013,78,20,5.7,82.4
149,San Cristobal,HN,1577650691,14.68,-86.92,27.58000000000004,300.73,300.73,1009,52,15,3.78,81.64400000000008
150,Manoel Urbano,BR,1577650691,-8.84,-69.26,25.110000000000014,298.26,298.26,1007,91,98,1.92,77.19800000000004
151,Radchenko,RU,1577650691,56.68,36.37,-6.479999999999961,266.67,266.67,1029,87,89,3.23,20.33600000000007
152,Vila Velha,BR,1577650410,-3.71,-38.6,29.090000000000032,300.37,303.15,1007,62,0,7.2,86.0
153,Lorengau,PG,1577650692,-2.02,147.27,28.220000000000027,301.37,301.37,1010,73,63,2.63,82.79600000000005
154,Nanortalik,GL,1577650692,60.14,-45.24,-2.0299999999999727,271.12,271.12,1005,66,92,3.86,28.34600000000005
155,Bom Jesus,BR,1577650692,-9.08,-44.36,30.430000000000007,303.58,303.58,1005,44,100,1.92,86.77400000000002
156,Dikson,RU,1577650692,73.51,80.55,-21.129999999999967,252.02,252.02,997,96,100,13.37,-6.033999999999942
157,Kavieng,PG,1577650692,-2.57,150.8,28.75,301.9,301.9,1011,72,68,4.38,83.75
158,Salisbury,GB,1577650692,51.07,-1.8,5.4500000000000455,275.93,280.15,1032,100,75,0.5,44.6
159,Phan Thiet,VN,1577650692,10.93,108.1,20.74000000000001,293.89,293.89,1011,80,0,1.36,69.33200000000002
160,Plettenberg Bay,ZA,1577650693,-34.05,23.37,19.52000000000004,292.67,292.67,1012,94,98,3.59,67.13600000000008
161,Cape Town,ZA,1577650693,-33.93,18.42,20.220000000000027,292.04,295.37,1009,64,2,8.2,71.99600000000005
162,Homer,US,1577650693,59.64,-151.54,-1.089999999999975,270.15,274.15,984,94,90,4.1,33.8
163,Bonavista,CA,1577650693,48.65,-53.11,-0.5600000000000023,272.59,272.59,997,86,100,5.81,30.991999999999997
164,Moussoro,TD,1577650693,13.64,16.49,20.510000000000048,293.66,293.66,1013,14,64,3.89,68.91800000000009
165,Presidente Medici,BR,1577650693,-11.18,-61.9,27.78000000000003,300.93,300.93,1005,91,100,1.3,82.00400000000005
166,Wanning,AT,1577650694,48.64,13.53,-4.3799999999999955,267.04,269.82,1039,92,82,0.83,26.00600000000003
167,Yar-Sale,RU,1577650694,66.83,70.83,-12.409999999999968,260.74,260.74,1006,90,99,6.37,9.662000000000056
168,Dong Hoi,VN,1577650694,17.48,106.6,19.340000000000032,292.49,292.49,1015,94,89,1.74,66.81200000000007
169,Tura,RU,1577650694,64.27,100.22,-31.079999999999984,242.07,242.07,1021,90,100,3.08,-23.943999999999974
170,Kenai,US,1577650694,60.55,-151.26,-7.449999999999989,265.15,266.48,988,92,90,4.6,19.99400000000007
171,Te Anau,NZ,1577650694,-45.41,167.72,11.760000000000048,284.91,284.91,1014,83,100,2.61,53.16800000000009
172,Basco,US,1577650695,40.33,-91.2,12.370000000000005,284.15,286.48,999,76,75,7.7,55.99400000000007
173,Lavrentiya,RU,1577650584,65.58,-170.99,-20.74999999999997,252.4,252.4,1010,85,0,4.62,-5.349999999999952
174,Tiksi,RU,1577650695,71.64,128.87,-28.639999999999986,244.51,244.51,1024,83,100,7.33,-19.55199999999998
175,Devonport,AU,1577650695,-41.18,146.36,20.340000000000032,292.59,295.37,999,59,0,0.89,71.99600000000005
176,El Tigre,VE,1577650695,8.89,-64.25,29.689999999999998,302.84,302.84,1007,51,45,5.13,85.44200000000001
177,Nemuro,JP,1577650446,43.32,145.57,-3.0399999999999636,270.11,270.11,1029,58,5,2.63,26.528000000000066
178,Barinas,VE,1577650696,8.64,-70.23,30.980000000000018,304.13,304.13,1007,56,93,3.88,87.76400000000004
179,Bereda,ES,1577650696,43.27,-7.54,5.689999999999998,274.82,283.15,1028,81,31,2.6,50.0
180,Ukiah,US,1577650696,39.15,-123.21,7.590000000000032,277.59,283.71,1018,93,90,1.5,51.00800000000001
181,Poum,MK,1577650696,41.28,20.71,-2.0,271.15,271.15,1024,58,75,6.7,28.4
182,Port-Gentil,GA,1577650696,-0.72,8.78,28.0,301.15,301.15,1009,88,40,3.6,82.4
183,Pochutla,MX,1577650697,15.74,-96.47,29.850000000000023,302.15,303.71,1011,66,40,5.1,87.00800000000001
184,Qandala,SO,1577650626,11.47,49.87,23.83000000000004,296.98,296.98,1013,82,30,1.05,74.89400000000008
185,Mattru,SL,1577650697,7.62,-11.83,25.620000000000005,298.77,298.77,1009,81,0,1.87,78.11600000000001
186,Shimoda,JP,1577650697,34.7,138.93,7.230000000000018,279.26,281.48,1027,72,100,7.35,46.99400000000007
187,Ketchikan,US,1577650697,55.34,-131.65,7.5400000000000205,279.15,282.15,1012,93,90,8.7,48.2
188,Sao Filipe,CV,1577650697,14.9,-24.5,21.970000000000027,295.12,295.12,1013,70,22,5.07,71.54600000000005
189,Deputatskiy,RU,1577650698,69.3,139.9,-31.779999999999973,241.37,241.37,1030,73,80,1.46,-25.20399999999995
190,Veraval,FR,1577650698,49.65,0.71,1.3400000000000318,273.71,275.37,1034,70,32,2.6,35.99600000000005
191,Coos Bay,US,1577650698,43.37,-124.22,7.850000000000023,280.37,281.48,1016,100,90,0.93,46.99400000000007
192,Pacific Grove,US,1577650527,36.62,-121.92,11.04000000000002,281.48,287.04,1021,71,90,5.2,57.00200000000008
193,Gerede,TR,1577650698,40.8,32.2,-0.9099999999999682,272.24,272.24,1021,96,100,0.76,30.36200000000006
194,Antofagasta,CL,1577650698,-23.65,-70.4,21.0,294.15,294.15,1012,73,75,6.7,69.80000000000001
195,Myingyan,MM,1577650698,21.46,95.39,13.0,286.15,286.15,1016,87,20,2.25,55.400000000000006
196,Pontianak,ID,1577650699,-0.02,109.34,23.660000000000025,296.81,296.81,1009,97,90,0.25,74.58800000000005
197,Souillac,FR,1577650699,45.6,-0.6,3.3100000000000023,273.71,278.15,1032,93,100,1.91,41.0
198,Barahona,DO,1577650699,18.21,-71.1,30.0,303.15,303.15,1011,58,20,5.1,86.0
199,Saint Anthony,US,1577650699,43.97,-111.68,-7.399999999999977,264.15,267.15,1019,73,90,2.1,21.2
200,Victoria,BN,1577650699,5.28,115.24,27.33000000000004,299.82,301.15,1009,83,75,1.5,82.4
201,Gizo,IL,1577650699,31.8,34.94,10.850000000000023,281.48,286.15,1015,62,0,2.6,55.400000000000006
202,Padang,ID,1577650700,-0.92,100.36,20.470000000000027,293.62,293.62,1009,96,44,2.11,68.84600000000006
203,Bemidji,US,1577650681,47.48,-94.89,-3.259999999999991,268.15,271.48,998,92,90,9.3,28.994000000000074
204,Axim,GH,1577650700,4.87,-2.24,26.640000000000043,299.79,299.79,1010,83,18,1.6,79.95200000000008
205,Fairbanks,US,1577650559,64.84,-147.72,-24.099999999999966,246.15,251.48,999,83,40,2.72,-7.005999999999979
206,Canutama,BR,1577650700,-6.53,-64.38,26.24000000000001,299.39,299.39,1006,82,100,0.58,79.23200000000003
207,Bambous Virieux,MU,1577650700,-20.34,57.76,24.660000000000025,297.59,298.15,1002,94,75,8.7,77.0
208,Songjianghe,CN,1577650701,42.18,127.48,-11.419999999999959,261.73,261.73,1025,93,100,1.8,11.444000000000074
209,Nizwa,OM,1577650701,22.93,57.53,15.160000000000025,288.31,288.31,1018,88,32,0.58,59.288000000000046
210,Fortuna,US,1577650701,40.6,-124.16,8.850000000000023,279.26,284.15,1017,100,75,4.6,51.8
211,Richards Bay,ZA,1577650701,-28.77,32.06,22.75,295.9,295.9,1014,90,100,10.93,72.95
212,Khani,GE,1577650702,41.96,42.96,12.0,285.15,285.15,1018,54,40,6.7,53.6
213,Chowchilla,US,1577650702,37.12,-120.26,10.390000000000043,280.93,286.15,1021,66,1,1.5,55.400000000000006
214,Barrow,AR,1577650702,-38.31,-60.23,26.230000000000018,299.38,299.38,1012,55,100,6.48,79.21400000000003
215,Jaisalmer,IN,1577650702,26.91,70.91,11.420000000000016,284.57,284.57,1016,19,0,3.53,52.556000000000026
216,Pemba,MZ,1577650702,-12.97,40.52,25.0,298.15,298.15,1010,94,90,2.1,77.0
217,Fare,PF,1577650702,-16.7,-151.02,27.379999999999995,300.53,300.53,1013,75,56,5.35,81.28399999999999
218,Penzance,GB,1577650703,50.12,-5.53,9.830000000000041,282.15,284.82,1030,93,75,7.2,53.00600000000003
219,Jamestown,AU,1577650696,-33.21,138.6,29.939999999999998,303.09,303.09,1007,26,0,7.41,85.892
220,Nikolayevsk-na-amure,RU,1577650703,53.14,140.72,-26.67999999999998,246.47,246.47,1022,89,0,1.94,-16.023999999999965
221,Salinopolis,BR,1577650703,-0.61,-47.36,28.189999999999998,301.34,301.34,1006,78,100,7.69,82.74199999999999
222,Roald,NO,1577650703,62.58,6.12,9.03000000000003,281.48,283.15,1004,87,75,13.4,50.0
223,Hofn,IS,1577650703,64.25,-15.21,5.560000000000002,278.71,278.71,986,79,92,7.69,42.008
224,Murovani Kurylivtsi,UA,1577650704,48.71,27.54,-1.669999999999959,271.48,271.48,1032,87,92,3.13,28.994000000000074
225,Hemsedal,NO,1577650704,60.86,8.55,3.660000000000025,275.37,278.71,1008,77,98,0.45,42.008
226,Mangrol,IN,1577650704,25.33,76.51,7.8799999999999955,281.03,281.03,1017,34,0,2.19,46.18399999999999
227,Lompoc,US,1577650614,34.64,-120.46,14.0,284.15,288.71,1022,67,75,2.1,60.00800000000001
228,Zaozerne,UA,1577650704,51.37,23.94,-3.769999999999982,269.38,269.38,1037,85,12,2.48,25.214000000000034
229,Avera,US,1577650705,33.19,-82.53,20.860000000000014,292.59,295.15,1014,94,90,2.1,71.6
230,Camopi,GF,1577650705,3.17,-52.33,24.760000000000048,297.91,297.91,1007,96,89,1.42,76.5680000000001
231,Los Llanos de Aridane,ES,1577650705,28.66,-17.92,19.54000000000002,291.48,294.15,1021,30,100,2.6,69.80000000000001
232,Salalah,OM,1577650705,17.01,54.1,25.0,298.15,298.15,1015,69,40,3.6,77.0
233,Porto Novo,BR,1577650705,-23.68,-45.44,28.0,301.15,301.15,1013,51,20,8.7,82.4
234,Eureka,US,1577650630,40.8,-124.16,9.0,279.26,284.15,1017,100,75,4.6,51.8
235,Naugachhia,IN,1577650706,25.4,87.1,10.200000000000045,283.35,283.35,1017,48,0,2.47,50.360000000000085
236,Erenhot,CN,1577650706,43.65,111.97,-20.039999999999964,253.11,253.11,1046,80,98,7.73,-4.071999999999939
237,Lokosovo,RU,1577650706,61.13,74.84,-22.24999999999997,250.9,250.9,1026,92,0,2.65,-8.049999999999947
238,Hilo,US,1577650492,19.71,-155.08,24.54000000000002,295.37,300.15,1022,61,1,2.6,80.6
239,Torbay,CA,1577650706,47.66,-52.73,-0.8899999999999864,271.48,273.15,998,92,90,11.8,32.0
240,Saint-Augustin,CA,1577650706,45.63,-73.98,0.060000000000002274,272.59,273.71,1022,63,90,2.6,33.008
241,Kitab,UZ,1577650707,39.12,66.88,5.0,278.15,278.15,1020,53,20,0.5,41.0
242,Vanavara,RU,1577650707,60.35,102.28,-26.23999999999998,246.91,246.91,1028,96,100,3.35,-15.231999999999964
243,Guarapari,BR,1577650707,-20.67,-40.5,27.54000000000002,300.15,301.48,1012,74,20,4.1,82.99400000000009
244,Airai,TL,1577650707,-8.93,125.41,20.02000000000004,293.17,293.17,1010,91,100,1.19,68.03600000000007
245,Valley City,US,1577650707,46.92,-98.0,-7.0,266.15,266.15,1001,100,90,11.3,19.4
246,Chateauroux,FR,1577650707,43.72,0.65,5.520000000000039,277.59,280.15,1031,81,1,2.6,44.6
247,Derzhavinsk,KZ,1577650708,51.1,66.31,-19.269999999999982,253.88,253.88,1023,97,84,3.41,-2.6859999999999715
248,High Level,CA,1577650708,58.52,-117.13,-16.0,257.15,257.15,1018,84,75,6.2,3.1999999999999993
249,Karachev,RU,1577650708,53.12,35.0,-3.169999999999959,269.98,269.98,1032,85,100,2.22,26.294000000000075
250,Polovinnoye,RU,1577650708,54.79,65.99,-18.599999999999966,254.55,254.55,1025,97,100,3.81,-1.47999999999994
251,Saint George,GR,1577650520,39.45,22.34,5.060000000000002,277.15,279.15,1022,48,40,9.3,42.8
252,Chernyshevskiy,RU,1577650708,63.01,112.47,-26.529999999999973,246.62,246.62,1028,95,100,3.99,-15.753999999999955
253,Karachi,PK,1577650586,24.87,67.03,11.0,284.15,284.15,1017,57,8,3.1,51.8
254,Presidencia Roque Saenz Pena,AR,1577650709,-26.79,-60.44,38.660000000000025,311.81,311.81,1004,27,34,3.73,101.58800000000005
255,Jieshi,CN,1577650709,22.82,115.83,17.78000000000003,290.93,290.93,1016,97,100,1.79,64.00400000000005
256,Rio Gallegos,AR,1577650709,-51.62,-69.22,20.0,293.15,293.15,1007,34,40,9.8,68.0
257,The Valley,AI,1577650709,18.22,-63.06,27.420000000000016,299.15,303.15,1013,78,40,6.7,86.0
258,Maloy,ID,1577650709,1.0,118.1,23.28000000000003,296.43,296.43,1009,98,100,1.1,73.90400000000005
259,Srednekolymsk,RU,1577650587,67.46,153.71,-37.25999999999999,235.89,235.89,1033,86,0,0.55,-35.067999999999984
260,Havoysund,NO,1577650710,71.0,24.66,1.0,274.15,274.15,986,74,75,6.2,33.8
261,Maltahohe,NA,1577650710,-24.83,16.98,21.350000000000023,294.5,294.5,1008,32,1,3.26,70.43000000000004
262,Trincomalee,LK,1577650710,8.58,81.23,22.24000000000001,295.39,295.39,1010,96,79,0.75,72.03200000000001
263,Necochea,AR,1577650710,-38.55,-58.74,21.420000000000016,294.57,294.57,1013,82,100,4.92,70.55600000000004
264,Harper,US,1577650710,30.3,-99.24,15.020000000000039,285.93,289.82,1013,22,1,9.8,62.00600000000003
265,Mosquera,CO,1577650711,4.71,-74.23,21.0,294.15,294.15,1022,52,75,5.1,69.80000000000001
266,Madimba,CM,1577650711,4.42,9.93,27.0,300.15,300.15,1007,83,40,0.33,80.6
267,Iqaluit,CA,1577650711,63.75,-68.52,-21.349999999999966,251.15,252.59,1021,76,40,1.0,-5.007999999999953
268,Bathsheba,BB,1577650711,13.22,-59.52,29.0,302.15,302.15,1011,62,20,5.7,84.2
269,Rosendal,NO,1577650711,59.99,6.01,8.379999999999995,281.15,282.04,1013,100,75,7.7,48.00200000000008
270,Oranjemund,ZA,1577650711,-28.55,16.43,15.730000000000018,288.88,288.88,1011,97,37,2.24,60.314000000000036
271,Baoro,CF,1577650712,5.69,15.95,21.24000000000001,294.39,294.39,1011,26,8,2.45,70.23200000000003
272,Kushiro,JP,1577650712,43.11,144.15,-6.729999999999961,266.42,266.42,1028,67,0,0.88,19.886000000000067
273,Chicama,PE,1577650625,-7.84,-79.15,21.0,294.15,294.15,1011,83,90,4.6,69.80000000000001
274,Pimenta Bueno,BR,1577650712,-11.68,-61.19,28.25,301.4,301.4,1005,80,100,1.41,82.85
275,Upernavik,GL,1577650712,72.79,-56.15,-10.839999999999975,262.31,262.31,1004,89,100,5.56,12.488000000000046
276,Thompson,CA,1577650712,55.74,-97.86,-15.0,258.15,258.15,1020,84,90,2.1,5.0
277,Metu,ET,1577650712,8.3,35.58,17.200000000000045,290.35,290.35,1012,68,100,1.4,62.96000000000008
278,Loiza,PR,1577650713,18.43,-65.88,27.5,298.71,302.04,1014,74,40,6.2,84.00200000000008
279,Lasa,CY,1577650713,34.92,32.53,13.980000000000018,283.71,289.15,1011,82,75,4.1,60.8
280,Kirovskiy,RU,1577650713,45.09,133.51,-11.589999999999975,261.56,261.56,1020,95,100,4.91,11.138000000000044
281,Kathmandu,NP,1577650713,27.71,85.32,4.0,277.15,277.15,1020,93,20,1.0,39.2
282,Itarema,BR,1577650713,-2.92,-39.92,26.900000000000034,300.05,300.05,1007,74,13,4.93,80.42000000000007
283,Port Lincoln,AU,1577650713,-34.72,135.86,32.69,305.84,305.84,1001,27,27,10.15,90.842
284,Jamame,SO,1577650714,0.07,42.75,27.32000000000005,300.47,300.47,1009,81,100,10.11,81.1760000000001
285,Rocky Mountain House,CA,1577650714,52.38,-114.92,1.07000000000005,274.22,274.22,1018,87,69,0.61,33.92600000000009
286,Kisarawe,TZ,1577650714,-6.9,39.07,28.0,301.15,301.15,1009,83,75,5.1,82.4
287,Port Augusta,AU,1577650714,-32.49,137.76,27.220000000000027,300.37,300.37,1008,36,15,3.71,80.99600000000005
288,Kamaishi,JP,1577650714,39.28,141.86,0.20000000000004547,273.35,273.35,1028,72,0,2.9,32.360000000000085
289,Paamiut,GL,1577650714,61.99,-49.67,-4.449999999999989,268.7,268.7,1008,71,0,4.37,23.99000000000002
290,Agadez,NE,1577650714,16.97,7.99,21.0,294.15,294.15,1017,19,1,5.1,69.80000000000001
291,Kuytun,RU,1577650715,54.34,101.51,-25.67999999999998,247.47,247.47,1032,94,99,4.0,-14.223999999999961
292,Bhinmal,IN,1577650715,25.01,72.27,10.03000000000003,283.18,283.18,1016,33,6,0.83,50.05400000000006
293,Tasiilaq,GL,1577650715,65.61,-37.64,-4.0,269.15,269.15,1001,53,5,2.6,24.8
294,Bulnes,CL,1577650716,-36.74,-72.3,26.54000000000002,295.15,305.15,1011,29,0,2.1,89.6
295,Tocopilla,CL,1577650564,-22.09,-70.2,21.980000000000018,295.13,295.13,1011,24,0,4.28,71.56400000000004
296,Todos Santos,MX,1577650716,23.45,-110.23,21.150000000000034,292.59,297.04,1017,43,5,2.6,75.00200000000008
297,Gushikawa,JP,1577650716,26.35,127.87,21.129999999999995,293.71,295.15,1020,94,1,2.6,71.6
298,Durban,CA,1577650716,51.93,-101.44,-11.549999999999955,261.6,261.6,1022,89,0,1.23,11.210000000000083
299,Santiago del Estero,AR,1577650717,-27.8,-64.26,26.49000000000001,299.64,299.64,1004,74,100,2.9,79.68200000000002
300,Baykit,RU,1577650717,61.68,96.39,-29.97999999999999,243.17,243.17,1027,98,82,1.33,-21.963999999999984
301,Sorland,NO,1577650717,67.67,12.69,7.050000000000011,279.15,281.15,980,87,75,3.6,46.4
302,Ancud,CL,1577650717,-41.87,-73.83,20.0,293.15,293.15,1015,60,100,4.1,68.0
303,Elizabeth City,US,1577650717,36.3,-76.22,17.390000000000043,288.71,292.15,1018,77,75,4.1,66.2
304,Payson,US,1577650717,40.04,-111.73,-3.599999999999966,266.15,272.04,1021,63,90,1.56,30.002000000000077
305,Ahvaz,IR,1577650718,31.32,48.68,10.0,283.15,283.15,1018,87,3,1.0,50.0
306,Coatepec,MX,1577650718,19.45,-96.96,22.110000000000014,295.26,295.26,1009,49,95,2.66,71.79800000000003
307,Serov,RU,1577650718,59.61,60.57,-18.22999999999999,254.92,254.92,1030,81,0,2.37,-0.8139999999999858
308,Coquimbo,CL,1577650714,-29.95,-71.34,18.0,291.15,291.15,1014,72,40,5.7,64.4
309,Ahipara,NZ,1577650465,-35.17,173.16,20.560000000000002,293.71,293.71,1017,96,0,0.45,69.00800000000001
310,Yulara,AU,1577650718,-25.24,130.99,28.0,301.15,301.15,1011,48,40,3.6,82.4
311,Vardo,US,1577650718,39.62,-77.74,8.120000000000005,279.26,283.15,1016,93,90,1.5,50.0
312,Pevek,RU,1577650719,69.7,170.27,-31.18999999999997,241.96,241.96,1030,99,96,3.34,-24.141999999999946
313,Ghanzi,BW,1577650719,-21.7,21.65,24.49000000000001,297.64,297.64,1009,70,26,0.49,76.08200000000002
314,Otukpo,NG,1577650719,7.19,8.13,27.29000000000002,300.44,300.44,1009,15,86,2.07,81.12200000000004
315,Rorvik,NO,1577650719,64.86,11.24,7.920000000000016,280.93,281.15,996,87,75,11.8,46.4
316,Beidao,CN,1577650720,34.57,105.89,-3.569999999999993,269.58,269.58,1031,54,48,1.01,25.574000000000012
317,Manggar,ID,1577650720,-2.88,108.27,27.350000000000023,300.5,300.5,1008,82,62,3.11,81.23000000000005
318,Marabba,SD,1577650720,12.35,32.18,20.05000000000001,293.2,293.2,1012,18,0,4.84,68.09000000000003
319,Bhadasar,IN,1577650720,28.3,74.31,9.560000000000002,282.71,282.71,1018,28,0,2.58,49.208000000000006
320,Neyshabur,IR,1577650720,36.21,58.79,4.6200000000000045,277.77,277.77,1021,64,89,0.62,40.31600000000001
321,Khash,IR,1577650720,28.22,61.21,7.680000000000007,280.83,280.83,1019,65,0,1.01,45.82400000000001
322,Nove Hrady,CZ,1577650721,48.79,14.78,-6.3799999999999955,263.15,269.82,1037,87,44,0.45,26.00600000000003
323,Puerto Madryn,AR,1577650721,-42.77,-65.04,28.629999999999995,301.78,301.78,1009,25,58,12.84,83.53399999999999
324,Mahebourg,MU,1577650721,-20.41,57.7,24.650000000000034,297.59,298.15,1002,94,75,8.7,77.0
325,Ondjiva,AO,1577650721,-17.07,15.73,21.230000000000018,294.38,294.38,1008,84,100,2.37,70.21400000000003
326,Namibe,AO,1577650721,-15.19,12.15,22.75,295.9,295.9,1010,86,100,2.86,72.95
327,Pimentel,BR,1577650721,-3.7,-45.5,25.890000000000043,299.04,299.04,1007,89,100,2.06,78.60200000000009
328,Ouidah,BJ,1577650722,6.37,2.09,29.0,302.15,302.15,1007,58,0,2.6,84.2
329,Elko,US,1577650722,40.83,-115.76,-0.6899999999999977,272.04,273.15,1018,92,90,2.1,32.0
330,Kitgum,UG,1577650722,3.3,32.88,23.460000000000036,296.61,296.61,1010,34,0,1.42,74.22800000000007
331,Clyde River,CA,1577650722,70.47,-68.59,-11.0,262.15,262.15,1001,72,90,7.2,12.2
332,Fugen,AT,1577650722,47.35,11.85,-3.599999999999966,267.04,272.59,1038,86,0,1.5,30.991999999999997
333,Saldanha,PT,1577650722,41.42,-6.55,6.210000000000036,279.36,279.36,1031,57,0,1.1,43.17800000000007
334,Kimbe,PG,1577650722,-5.56,150.15,25.33000000000004,298.48,298.48,1011,82,0,0.77,77.59400000000008
335,Tacuarembo,UY,1577650723,-31.73,-55.98,30.180000000000007,303.33,303.33,1008,55,79,2.34,86.32400000000001
336,Lagoa,PT,1577650723,37.14,-8.45,14.060000000000002,285.93,288.15,1027,71,0,3.1,59.0
337,Parincea,RO,1577650723,46.49,27.11,-1.0600000000000023,272.04,272.15,1033,86,90,8.2,30.2
338,Poplar Bluff,US,1577650685,36.76,-90.39,12.610000000000014,285.15,286.15,1005,93,90,3.1,55.400000000000006
339,Kabwe,ZM,1577650723,-14.44,28.44,19.260000000000048,292.41,292.41,1011,94,100,2.84,66.66800000000009
340,Cicero Dantas,BR,1577650724,-10.6,-38.38,26.060000000000002,299.21,299.21,1008,62,88,3.92,78.90800000000002
341,Gros Islet,LC,1577650724,14.07,-60.95,28.680000000000007,300.93,302.15,1011,66,20,4.1,84.2
342,Kungsbacka,SE,1577650439,57.49,12.08,5.910000000000025,278.15,280.37,1021,93,90,8.7,44.99600000000005
343,Haradok,BY,1577650724,55.46,29.99,-5.560000000000002,267.59,267.59,1030,90,52,4.48,21.991999999999997
344,Kiruna,SE,1577650724,67.86,20.23,0.0,273.15,273.15,983,98,100,2.6,32.0
345,Huttwil,CH,1577650724,47.11,7.85,-1.2299999999999613,269.26,274.26,1035,86,0,2.6,33.998000000000026
346,Matam,SN,1577650725,15.66,-13.26,28.0,301.15,301.15,1010,24,66,5.04,82.4
347,Batagay-Alyta,RU,1577650725,67.8,130.41,-30.029999999999973,243.12,243.12,1030,77,95,2.44,-22.053999999999952
348,Aranos,NA,1577650725,-24.14,19.11,25.810000000000002,298.96,298.96,1008,57,77,5.86,78.458
349,Seoul,KR,1577650526,37.57,126.98,3.0,274.15,277.15,1021,93,90,1.0,39.2
350,Mossendjo,CG,1577650725,-2.95,12.72,22.760000000000048,295.91,295.91,1012,92,100,0.29,72.96800000000009
351,Caravelas,BR,1577650725,-17.73,-39.27,25.150000000000034,298.3,298.3,1011,74,55,3.62,77.27000000000007
352,Kouroussa,GN,1577650726,10.65,-9.88,22.890000000000043,296.04,296.04,1011,22,0,0.81,73.20200000000008
353,Yerbogachen,RU,1577650670,61.28,108.01,-25.819999999999965,247.33,247.33,1028,96,100,4.67,-14.475999999999935
354,Tarakan,ID,1577650726,3.3,117.63,26.52000000000004,299.67,299.67,1011,83,86,3.68,79.73600000000008
355,Oskarshamn,SE,1577650726,57.26,16.44,3.9500000000000455,276.48,277.59,1024,71,100,5.1,39.992
356,Puerto Ayacucho,CO,1577650726,5.66,-67.63,34.0,307.15,307.15,1005,46,20,5.7,93.2
357,Sao Miguel do Iguacu,BR,1577650726,-25.35,-54.24,34.34000000000003,307.15,308.15,1009,36,10,2.1,95.0
358,Merauke,ID,1577650727,-8.49,140.4,24.58000000000004,297.73,297.73,1010,92,100,1.84,76.24400000000009
359,Shar,NG,1577650727,7.3,8.73,25.660000000000025,298.81,298.81,1009,16,8,0.81,78.18800000000005
360,Adrar,DZ,1577650727,27.87,-0.29,16.0,289.15,289.15,1023,37,0,6.7,60.8
361,Tynda,RU,1577650727,55.15,124.74,-35.71999999999997,237.43,237.43,1036,95,84,1.27,-32.29599999999995
362,Jinchang,CN,1577650727,38.52,102.19,-9.829999999999984,263.32,263.32,1036,60,100,1.25,14.30600000000003
363,Maningrida,AU,1577650727,-12.05,134.23,26.670000000000016,299.82,299.82,1010,81,100,1.07,80.00600000000003
364,Beringovskiy,RU,1577650525,63.05,179.32,-21.419999999999987,251.73,251.73,1014,87,0,9.0,-6.555999999999976
365,Baft,IR,1577650728,29.23,56.61,3.6000000000000227,276.75,276.75,1019,54,0,1.48,38.48000000000004
366,Honggang,CN,1577650728,29.51,114.87,6.980000000000018,280.13,280.13,1023,96,20,1.02,44.564000000000036
367,Taylor,CA,1577650728,56.15,-120.68,-3.099999999999966,267.15,274.15,1015,69,20,5.1,33.8
368,Marechal Candido Rondon,BR,1577650728,-24.56,-54.06,33.0,306.15,306.15,1013,41,20,5.1,91.4
369,Portland,US,1577650594,43.66,-70.25,3.140000000000043,275.37,277.15,1021,48,69,2.1,39.2
370,Makakilo City,US,1577650728,21.35,-158.09,26.53000000000003,298.15,301.48,1021,78,1,3.6,82.99400000000009
371,Hazorasp,UZ,1577650728,41.32,61.08,0.0,273.15,273.15,1025,65,100,1.59,32.0
372,Santa Lucia,IT,1577650729,41.98,12.66,3.7000000000000455,273.71,280.15,1028,51,0,3.6,44.6
373,Sur,OM,1577650729,22.57,59.53,21.420000000000016,294.57,294.57,1017,74,85,1.15,70.55600000000004
374,Ambon,FR,1577650729,47.55,-2.56,2.5100000000000477,274.82,278.15,1032,93,89,1.5,41.0
375,Vestmannaeyjar,IS,1577650729,63.44,-20.27,4.8799999999999955,278.03,278.03,992,74,24,10.49,40.78399999999999
376,Hovd,NO,1577650729,63.83,10.7,8.120000000000005,278.15,283.15,1001,70,75,8.7,50.0
377,Ayapel,CO,1577650729,8.31,-75.14,30.30000000000001,303.45,303.45,1004,72,99,1.8,86.54000000000002
378,Imbituba,BR,1577650537,-28.24,-48.67,30.0,303.15,303.15,1011,66,70,6.2,86.0
379,Tessalit,ML,1577650730,20.2,1.01,18.05000000000001,291.2,291.2,1017,12,0,5.3,64.49000000000002
380,Cacequi,BR,1577650730,-29.88,-54.83,30.75,303.9,303.9,1008,52,72,7.07,87.35
381,Omidiyeh,IR,1577650730,30.76,49.7,13.0,286.15,286.15,1018,66,0,1.4,55.400000000000006
382,Moose Factory,CA,1577650730,51.26,-80.61,-6.0,267.15,267.15,1026,67,90,3.6,21.2
383,Portree,GB,1577650730,57.41,-6.19,10.580000000000041,283.15,284.26,1014,96,100,8.05,51.998000000000026
384,Mayo,CA,1577650730,63.59,-135.9,-25.99999999999997,247.15,247.15,1004,75,40,1.81,-14.799999999999947
385,Dickinson,US,1577650731,46.88,-102.79,-7.139999999999986,265.93,266.15,1012,85,90,10.3,19.4
386,Twin Falls,US,1577650731,42.57,-114.46,-2.2399999999999523,269.82,273.15,1019,86,90,3.6,32.0
387,San Patricio,PY,1577650463,-26.98,-56.83,37.33000000000004,310.48,310.48,1005,30,0,3.06,99.19400000000007
388,Faanui,PF,1577650731,-16.48,-151.75,27.260000000000048,300.41,300.41,1013,75,97,4.6,81.0680000000001
389,Zhuhai,CN,1577650731,40.71,112.04,-19.99999999999997,253.15,253.15,1033,44,0,5.0,-3.9999999999999503
390,Havre-Saint-Pierre,CA,1577650731,50.23,-63.6,-7.0,266.15,266.15,1016,85,90,3.6,19.4
391,Palmer,AU,1577650732,-34.85,139.16,30.05000000000001,300.93,305.93,1007,35,1,3.6,91.00400000000005
392,Baiao,BR,1577650732,-2.79,-49.67,26.189999999999998,299.34,299.34,1006,89,100,1.46,79.142
393,Khromtau,KZ,1577650732,50.26,58.44,-12.899999999999977,260.25,260.25,1027,96,99,2.5,8.78000000000004
394,Coihaique,CL,1577650732,-45.58,-72.07,22.900000000000034,295.15,297.15,1011,29,96,4.6,75.2
395,Puri,ID,1577650732,-7.54,112.45,24.54000000000002,297.69,297.69,1009,88,100,1.08,76.17200000000004
396,Kumylzhenskaya,RU,1577650732,49.88,42.59,-5.609999999999957,267.04,268.15,1017,82,79,2.24,23.0
397,Khambhat,IN,1577650733,22.32,72.62,14.370000000000005,287.52,287.52,1013,40,0,3.37,57.866000000000014
398,Maniitsoq,GL,1577650733,65.42,-52.9,-6.92999999999995,266.22,266.22,1009,56,94,1.58,19.52600000000009
399,Sibolga,ID,1577650733,1.74,98.78,21.78000000000003,294.93,294.93,1009,96,87,1.25,71.20400000000006
400,Sheltozero,RU,1577650733,61.37,35.37,-3.089999999999975,270.06,270.06,1015,91,100,10.33,26.438000000000045
401,Namtsy,RU,1577650733,62.72,129.66,-41.99999999999997,231.15,231.15,1038,57,90,1.27,-43.59999999999995
402,Quatre Cocos,MU,1577650734,-20.21,57.76,24.680000000000007,297.59,298.15,1002,94,75,8.7,77.0
403,Amarpur,IN,1577650734,23.52,91.65,12.810000000000002,285.96,285.96,1015,72,0,0.97,55.05800000000001
404,Hunchun,CN,1577650734,42.86,130.36,-4.979999999999961,268.17,268.17,1020,92,95,2.01,23.03600000000007
405,Kalmunai,LK,1577650734,7.42,81.82,26.480000000000018,299.63,299.63,1010,77,99,6.07,79.66400000000004
406,Narsaq,GL,1577650734,60.91,-46.05,-3.0,270.15,270.15,1005,79,98,0.5,26.6
407,Bolu,TR,1577650734,40.73,31.61,-2.7299999999999613,270.42,270.42,1021,83,100,2.63,27.08600000000007
408,Gornyy,RU,1577650734,51.76,48.54,-11.949999999999989,261.2,261.2,1028,93,31,2.53,10.49000000000002
409,Marawi,PH,1577650735,8.0,124.29,21.670000000000016,294.82,294.82,1012,89,47,3.13,71.00600000000003
410,Mount Vernon,US,1577650735,38.73,-77.1,9.950000000000045,280.37,285.37,1017,93,90,2.1,53.99600000000005
411,Aripuana,BR,1577650735,-9.17,-60.63,27.07000000000005,300.22,300.22,1006,75,100,1.12,80.72600000000008
412,Trairi,BR,1577650735,-3.28,-39.27,26.30000000000001,299.45,299.45,1007,71,65,2.94,79.34000000000003
413,Laguna,BZ,1577650735,16.17,-88.94,28.0,301.15,301.15,1010,74,40,3.1,82.4
414,Kungurtug,RU,1577650735,50.6,97.53,-27.19999999999999,245.95,245.95,1046,66,0,1.43,-16.95999999999998
415,Qianan,CN,1577650736,44.99,124.06,-22.96999999999997,250.18,250.18,1032,98,98,2.83,-9.345999999999947
416,Cam Ranh,VN,1577650736,11.92,109.15,25.0,298.15,298.15,1013,94,40,1.5,77.0
417,Stromness,CA,1577650736,42.87,-79.55,3.3600000000000136,274.82,280.37,1011,93,90,4.6,44.99600000000005
418,Qaqortoq,GL,1577650736,60.72,-46.03,-3.0,270.15,270.15,1005,79,98,0.5,26.6
419,Hokitika,NZ,1577650736,-42.72,170.96,15.360000000000014,288.51,288.51,1013,90,100,2.98,59.648000000000025
420,Puyang,CN,1577650736,35.76,115.02,1.400000000000034,274.55,274.55,1031,38,89,7.4,34.52000000000006
421,Cabedelo,BR,1577650737,-6.97,-34.84,28.0,301.15,301.15,1009,69,75,5.1,82.4
422,Tolaga Bay,NZ,1577650737,-38.37,178.3,17.420000000000016,290.57,290.57,1012,62,2,1.72,63.35600000000003
423,Esmeraldas,BR,1577650737,-19.76,-44.31,22.210000000000036,295.15,296.15,1014,78,40,1.0,73.4
424,Amapa,HN,1577650737,15.09,-87.97,32.460000000000036,305.15,305.93,1009,52,20,4.6,91.00400000000005
425,Husavik,CA,1577650737,50.56,-96.99,-11.109999999999957,262.04,262.04,1016,87,100,9.39,12.002000000000077
426,Prykolotne,UA,1577650738,50.16,37.35,-3.3899999999999864,269.76,269.76,1031,75,94,2.8,25.898000000000025
427,Birsk,RU,1577650738,55.42,55.54,-18.299999999999983,254.85,254.85,1028,89,0,4.11,-0.9399999999999693
428,Tiruchchendur,IN,1577650738,8.48,78.12,24.32000000000005,297.47,297.47,1010,87,100,4.7,75.7760000000001
429,Rokytne,UA,1577650738,51.27,27.23,-7.810000000000002,265.34,265.34,1036,95,47,1.7,17.941999999999993
430,Codrington,AU,1577650738,-28.95,153.24,17.710000000000036,290.15,292.15,1019,88,75,1.19,66.2
431,Samarinda,ID,1577650738,-0.5,117.14,23.30000000000001,296.45,296.45,1009,96,100,1.1,73.94000000000003
432,Kushima,JP,1577650739,31.5,131.29,11.670000000000016,284.82,284.82,1025,87,100,1.79,53.00600000000003
433,Mujiayingzi,CN,1577650739,42.12,118.78,-17.25999999999999,255.89,255.89,1036,53,0,3.69,0.9320000000000164
434,Praya,ID,1577650739,-8.71,116.27,24.0,297.15,297.15,1011,100,40,0.48,75.2
435,Kurumkan,RU,1577650739,54.33,110.32,-31.089999999999975,242.06,242.06,1042,83,28,0.79,-23.961999999999954
436,Sao Jose da Coroa Grande,BR,1577650739,-8.9,-35.15,26.620000000000005,299.77,299.77,1010,75,94,6.69,79.91600000000001
437,Batsfjord,NO,1577650739,70.63,29.72,1.25,273.15,275.15,984,80,40,6.7,35.6
438,Venustiano Carranza,MX,1577650740,19.42,-99.11,21.170000000000016,290.15,299.15,1023,30,75,4.1,78.80000000000001
439,Saint-Georges,CA,1577650550,46.12,-70.67,-3.8799999999999955,268.15,269.82,990,75,100,0.89,26.00600000000003
440,Pangnirtung,CA,1577650740,66.15,-65.72,-17.0,256.15,256.15,1016,84,75,1.5,1.3999999999999986
441,Lata,IN,1577650740,30.78,78.62,-9.879999999999995,263.27,263.27,1024,20,81,3.97,14.216000000000008
442,Shelburne,CA,1577650515,44.08,-80.2,0.11000000000001364,272.04,274.26,1013,97,90,3.1,33.998000000000026
443,Sijunjung,ID,1577650740,-0.69,100.95,21.730000000000018,294.88,294.88,1009,97,79,0.91,71.11400000000003
444,Jeremie,HT,1577650623,18.65,-74.12,23.910000000000025,297.06,297.06,1012,75,19,1.2,75.03800000000004
445,Camocim,BR,1577650562,-2.9,-40.84,27.590000000000032,300.74,300.74,1006,70,60,5.92,81.66200000000006
446,Iracoubo,GF,1577650741,5.48,-53.21,26.560000000000002,299.71,299.71,1008,79,84,6.92,79.808
447,Puerto Escondido,MX,1577650741,15.86,-97.07,29.0,302.15,302.15,1011,70,40,7.2,84.2
448,Batagay,RU,1577650741,67.65,134.64,-33.27999999999997,239.87,239.87,1031,79,0,1.86,-27.903999999999954
449,Sabathu,IN,1577650741,31.01,76.99,5.770000000000039,278.92,278.92,1020,56,0,1.89,42.38600000000007
450,Jizan,SA,1577650611,16.89,42.56,26.0,299.15,299.15,1014,69,0,1.5,78.80000000000001
451,Severo-Kurilsk,RU,1577650742,50.68,156.12,-4.279999999999973,268.87,268.87,1020,90,100,7.53,24.29600000000005
452,Kilindoni,TZ,1577650742,-7.91,39.67,28.200000000000045,301.35,301.35,1009,81,100,7.82,82.76000000000008
453,Sinegorye,RU,1577650742,62.09,150.53,-27.349999999999966,245.8,245.8,1032,65,69,0.55,-17.22999999999994
454,Magistralnyy,RU,1577650742,56.17,107.45,-30.00999999999999,243.14,243.14,1038,92,96,2.37,-22.017999999999986
455,San Ramon,NI,1577650743,12.92,-85.84,25.0,298.15,298.15,1011,65,40,2.1,77.0
456,Tharad,IN,1577650743,24.39,71.63,13.379999999999995,286.53,286.53,1015,26,0,3.96,56.08399999999999
457,Northam,AU,1577650744,-31.65,116.67,16.470000000000027,289.26,290.15,1016,72,90,2.6,62.6
458,Bilibino,RU,1577650744,68.06,166.44,-32.559999999999974,240.59,240.59,1033,100,100,1.01,-26.607999999999954
459,Ulladulla,AU,1577650744,-35.36,150.48,17.0,290.15,290.15,1013,100,90,3.99,62.6
460,Ardakan,IR,1577650744,32.31,54.02,5.0,278.15,278.15,1022,56,0,1.0,41.0
461,Lodwar,KE,1577650744,3.12,35.6,29.57000000000005,302.72,302.72,1009,34,11,2.75,85.22600000000008
462,Maragogi,BR,1577650744,-9.01,-35.22,26.620000000000005,299.77,299.77,1010,75,94,6.69,79.91600000000001
463,Lhokseumawe,ID,1577650744,5.18,97.15,21.58000000000004,294.73,294.73,1010,93,0,0.84,70.84400000000008
464,Araouane,ML,1577650744,18.9,-3.53,20.75,293.9,293.9,1016,12,0,5.02,69.35
465,Muisne,EC,1577650745,0.61,-80.02,30.0,303.15,303.15,1007,74,20,4.6,86.0
466,Novo Aripuana,BR,1577650745,-5.12,-60.38,27.090000000000032,300.24,300.24,1005,92,63,1.7,80.76200000000006
467,Blagoyevo,RU,1577650745,63.37,47.92,-10.20999999999998,262.94,262.94,1016,69,100,6.7,13.622000000000035
468,Parksville,US,1577650745,33.79,-82.22,20.060000000000002,292.15,294.26,1014,100,90,3.1,69.99800000000002
469,Kloulklubed,PW,1577650745,7.04,134.26,27.0,300.15,300.15,1011,78,75,4.6,80.6
470,Bubaque,GW,1577650745,11.28,-15.83,28.04000000000002,301.19,301.19,1009,60,0,5.59,82.47200000000004
471,Monte Patria,CL,1577650746,-30.69,-70.96,26.379999999999995,299.53,299.53,1012,35,0,4.02,79.484
472,Guthrie,US,1577650456,35.88,-97.43,6.470000000000027,278.15,280.93,1009,48,40,7.2,46.004000000000055
473,Saint-Paul,FR,1577650746,45.22,1.9,2.730000000000018,274.82,277.59,1031,72,4,1.5,39.992
474,Zolotukhino,RU,1577650746,52.08,36.38,-5.0,268.15,268.15,1031,79,90,2.0,23.0
475,Kahului,US,1577650746,20.89,-156.47,24.83000000000004,295.93,300.15,1020,65,20,1.5,80.6
476,Oranjestad,AW,1577650746,12.52,-70.03,30.0,303.15,303.15,1009,58,20,9.3,86.0
477,Halifax,CA,1577650522,44.65,-63.58,-0.75,272.04,273.15,1015,50,20,7.7,32.0
478,Beloha,MG,1577650747,-25.17,45.06,25.02000000000004,298.17,298.17,1009,80,0,4.14,77.03600000000007
479,Tripoli,GR,1577650747,37.51,22.37,6.8700000000000045,273.71,282.59,1014,36,100,4.6,48.992
480,Toamasina,MG,1577650747,-18.17,49.38,25.0,298.15,298.15,1011,94,20,4.84,77.0
481,Kamenka,MD,1577650747,48.03,28.7,-1.1099999999999568,272.04,272.04,1032,85,96,3.49,30.002000000000077
482,Coahuayana,MX,1577650747,18.62,-100.35,31.700000000000045,304.85,304.85,1011,32,100,1.19,89.06000000000009
483,Gubkinskiy,RU,1577650747,64.43,76.5,-11.889999999999986,261.26,261.26,1014,88,100,9.82,10.598000000000024
484,Armidale,AU,1577650747,-30.51,151.67,22.689999999999998,295.84,295.84,1019,31,0,0.44,72.842
485,Ende,ID,1577650748,-8.84,121.65,28.670000000000016,301.82,301.82,1009,75,100,1.23,83.60600000000002
486,Tecpan,GT,1577650748,14.76,-90.99,24.120000000000005,296.48,299.15,1022,50,40,7.2,78.80000000000001
487,Bay Roberts,CA,1577650748,47.58,-53.28,-0.8899999999999864,271.48,273.15,998,92,90,11.8,32.0
488,Beira,ES,1577650748,43.2,-8.36,8.960000000000036,278.71,287.04,1028,81,0,2.6,57.00200000000008
489,Tamiahua,MX,1577650748,21.28,-97.45,24.49000000000001,297.64,297.64,1007,83,67,3.27,76.08200000000002
490,Belo Oriente,BR,1577650748,-19.22,-42.48,21.810000000000002,294.96,294.96,1011,90,5,2.06,71.25800000000001
491,Bulungu,CD,1577650748,-4.54,18.6,20.400000000000034,293.55,293.55,1011,97,100,0.84,68.72000000000006
492,Maine-Soroa,NE,1577650749,13.21,12.02,17.730000000000018,290.88,290.88,1014,19,60,3.6,63.91400000000003
493,Caohe,CN,1577650749,32.93,105.08,-2.2199999999999704,270.93,270.93,1026,79,0,2.33,28.004000000000055
494,Vanimo,PG,1577650749,-2.67,141.3,27.55000000000001,300.7,300.7,1011,78,100,3.12,81.59000000000003
495,Sao Joao da Barra,BR,1577650466,-21.64,-41.05,28.350000000000023,301.15,302.15,1012,54,1,6.2,84.2
496,Manono,CD,1577650749,-7.3,27.4,20.610000000000014,293.76,293.76,1012,98,100,1.86,69.09800000000003
497,Abonnema,NG,1577650749,4.71,6.79,22.0,295.15,295.15,1008,78,46,3.0,71.6
498,Riwaka,NZ,1577650708,-41.08,173.0,19.610000000000014,289.82,298.15,1010,42,94,0.89,77.0
499,Bekabad,TJ,1577650750,40.22,69.26,1.0,274.15,274.15,1021,80,90,2.0,33.8
500,Barranco,BR,1577650750,-20.59,-41.2,18.410000000000025,291.56,291.56,1012,97,28,1.34,65.13800000000005
501,Victor Harbor,AU,1577650750,-35.55,138.62,29.700000000000045,301.48,304.82,1007,35,33,3.6,89.00600000000003
502,Usinsk,RU,1577650750,66.0,57.56,-9.75,263.4,263.4,1010,74,98,12.34,14.45
503,Saveh,IR,1577650552,35.02,50.36,7.07000000000005,280.22,280.22,1023,58,0,1.45,44.72600000000009
504,Donskoye,RU,1577650750,45.45,41.98,0.6899999999999977,273.71,274.15,1022,86,90,7.0,33.8
505,Verkhnyaya Inta,RU,1577650751,65.99,60.32,-11.25,261.9,261.9,1011,70,73,11.87,11.75
506,Kitimat,CA,1577650751,54.02,-128.69,2.080000000000041,275.15,275.37,1015,93,75,1.5,35.99600000000005
507,Saint-Denis,FR,1577650751,48.94,2.36,1.5500000000000114,271.48,277.59,1035,60,0,1.0,39.992
508,Tarko-Sale,RU,1577650751,64.92,77.78,-12.21999999999997,260.93,260.93,1010,88,100,8.94,10.004000000000051
509,Martin,US,1577650751,36.34,-88.85,14.450000000000045,286.48,288.71,1005,100,75,2.1,60.00800000000001
510,Mikuni,JP,1577650752,36.22,136.15,7.0,280.15,280.15,1023,87,90,1.0,44.6
511,Mogadishu,SO,1577650617,2.04,45.34,27.100000000000023,300.25,300.25,1010,82,58,9.08,80.78000000000004
512,Ranong,TH,1577650752,9.96,98.62,24.840000000000032,297.99,297.99,1010,80,67,2.21,76.71200000000006
513,Zhangye,CN,1577650752,38.94,100.46,-8.620000000000005,264.53,264.53,1036,55,35,0.57,16.48399999999999
514,Aykhal,RU,1577650753,65.95,111.51,-29.99999999999997,243.15,243.15,1010,74,100,4.0,-21.99999999999995
515,Linhai,CN,1577650753,28.86,121.14,13.29000000000002,285.37,287.59,1018,96,100,1.72,57.992
516,Uthai Thani,TH,1577650753,15.37,100.05,22.460000000000036,295.61,295.61,1013,61,0,1.66,72.42800000000007
517,Helena,US,1577650477,46.59,-112.04,-3.7399999999999523,268.15,270.15,1018,58,90,1.5,26.6
518,Kirillov,RU,1577650753,59.86,38.38,-7.0,266.15,266.15,1023,92,75,2.0,19.4
519,Leningradskiy,RU,1577650753,69.38,178.42,-26.839999999999975,246.31,246.31,1024,89,74,11.79,-16.311999999999955
520,Foligno,IT,1577650754,42.96,12.7,2.6200000000000045,274.82,277.04,1031,78,0,2.68,39.00200000000008
521,Solnechnyy,RU,1577650754,50.72,136.64,-20.42999999999998,252.72,252.72,1020,88,100,1.09,-4.773999999999965
522,Acajutla,SV,1577650754,13.59,-89.83,28.890000000000043,302.04,302.04,1014,71,0,0.89,84.00200000000008
523,Buraydah,SA,1577650605,26.33,43.97,18.0,291.15,291.15,1016,45,0,4.6,64.4
524,Dubbo,AU,1577650754,-32.25,148.6,23.0,296.15,296.15,1015,33,0,4.6,73.4
525,Aklavik,CA,1577650562,68.22,-135.01,-29.619999999999976,243.15,244.15,1017,68,75,5.1,-20.199999999999953
526,Urengoy,RU,1577650755,65.96,78.37,-12.939999999999998,260.21,260.21,1009,94,100,6.46,8.708000000000002
527,Taltal,CL,1577650755,-25.41,-70.49,18.30000000000001,291.45,291.45,1011,73,4,3.11,64.94000000000003
528,Chake Chake,TZ,1577650755,-5.25,39.77,28.310000000000002,301.46,301.46,1009,80,100,7.79,82.958
529,Gawler,AU,1577650755,-34.6,138.75,30.05000000000001,300.93,305.93,1007,35,0,3.6,91.00400000000005
530,Pirovskoye,RU,1577650755,57.63,92.27,-20.20999999999998,252.94,252.94,1028,92,100,0.87,-4.377999999999965
531,Tifton,US,1577650756,31.45,-83.51,25.180000000000007,297.15,300.15,1014,69,75,4.1,80.6
532,Puerto Madero,AR,1577650756,-34.61,-58.36,32.870000000000005,302.15,308.15,1010,66,75,6.2,95.0
533,Zyryanka,RU,1577650756,65.73,150.89,-33.579999999999984,239.57,239.57,1030,96,0,2.18,-28.443999999999974
534,Praia da Vitoria,PT,1577650756,38.73,-27.07,14.0,287.15,287.15,1020,87,20,2.38,57.2
535,Olds,CA,1577650756,51.79,-114.11,-0.20999999999997954,267.15,275.93,1017,73,75,1.5,37.004000000000055
536,Flinders,AU,1577650756,-34.58,150.85,18.450000000000045,290.15,293.15,1013,100,90,2.59,68.0
