,City,Country,Date,Latitude,Longitude,Temp,Temp Min,Temp Max,Pressure,Humidity,Clouds,Wind Speed,Max F
0,Ushuaia,AR,1578442638,-54.81,-68.31,10.0,283.15,283.15,980,87,90,10.2902,50.0
1,Harwich,US,1578442638,41.69,-70.08,2.5400000000000205,274.15,277.15,1015,60,40,5.8162,39.2
2,Kodinsk,RU,1578442638,58.6,99.18,-13.45999999999998,259.69,259.69,1026,97,94,3.8029,7.7720000000000375
3,Tasiilaq,GL,1578442638,65.61,-37.64,-13.599999999999966,259.55,259.55,968,45,100,28.074350000000003,7.52000000000006
4,Pacific Grove,US,1578442638,36.62,-121.92,13.03000000000003,283.71,288.71,1021,71,40,8.0532,60.00800000000001
5,Tuktoyaktuk,CA,1578442638,69.44,-133.03,-35.99999999999997,237.15,237.15,1026,66,40,11.4087,-32.799999999999955
6,Ayr,AU,1578442639,-19.58,147.4,30.0,303.15,303.15,1012,63,62,5.99516,86.0
7,Nome,US,1578442639,30.04,-94.42,12.230000000000018,282.59,287.59,1028,47,1,3.3555,57.992
8,Arraial do Cabo,BR,1578442639,-22.97,-42.02,27.0,300.15,300.15,1010,83,20,3.3555,80.6
9,Jamestown,AU,1578442639,-33.21,138.6,27.58000000000004,300.73,300.73,1014,22,0,14.540500000000002,81.64400000000008
10,Hithadhoo,MV,1578442639,-0.6,73.08,28.510000000000048,301.66,301.66,1009,76,98,11.09552,83.3180000000001
11,Faanui,PF,1578442639,-16.48,-151.75,27.870000000000005,301.02,301.02,1011,80,13,18.32103,82.16600000000001
12,Puerto Ayora,EC,1578442349,-0.74,-90.35,26.140000000000043,298.15,300.15,1011,74,75,9.1717,80.6
13,Mataura,NZ,1578442640,-46.19,168.86,14.580000000000041,287.73,287.73,1014,57,95,5.54776,58.24400000000007
14,Isla Mujeres,MX,1578442640,21.23,-86.73,22.879999999999995,295.93,296.15,1022,64,20,9.1717,73.4
15,Bambous Virieux,MU,1578442640,-20.34,57.76,24.660000000000025,297.59,298.15,1011,94,75,5.61487,77.0
16,Portmore,JM,1578442640,17.97,-76.87,26.220000000000027,298.15,301.15,1016,78,20,10.2902,82.4
17,Bluff,AU,1578442354,-23.58,149.07,27.710000000000036,300.86,300.86,1014,53,57,10.75997,81.87800000000007
18,Ngunguru,NZ,1578442640,-35.62,174.5,21.700000000000045,294.26,295.37,1017,47,58,8.008460000000001,71.99600000000005
19,Gat,SN,1578442641,14.69,-16.54,19.0,292.15,292.15,1015,63,99,14.987900000000002,66.2
20,Morgan City,US,1578442641,29.7,-91.21,13.200000000000045,285.37,287.59,1028,33,1,5.8162,57.992
21,Nikolskoye,RU,1578442641,59.7,30.79,3.5300000000000296,276.48,277.15,1014,80,90,8.948,39.2
22,Ostersund,SE,1578442641,63.18,14.64,4.32000000000005,277.04,278.15,986,78,100,8.0532,41.0
23,Hasaki,JP,1578442641,35.73,140.83,4.560000000000002,277.04,278.15,1006,100,75,3.3555,41.0
24,Golspie,GB,1578442641,57.97,-3.98,6.850000000000023,278.71,281.15,999,87,94,24.1596,46.4
25,San-Pedro,CI,1578442642,4.75,-6.64,26.930000000000007,300.08,300.08,1011,78,29,13.198300000000001,80.47400000000002
26,Kavieng,PG,1578442642,-2.57,150.8,28.5,301.65,301.65,1007,79,77,14.47339,83.30000000000001
27,Gigmoto,PH,1578442642,13.78,124.39,26.710000000000036,299.86,299.86,1014,82,100,20.28959,80.07800000000006
28,Hastings,NZ,1578442642,-39.64,176.84,14.200000000000045,287.35,287.35,1015,68,0,14.38391,57.56000000000009
29,Longyearbyen,NO,1578442642,78.22,15.63,-1.0,272.15,272.15,978,68,40,38.029,30.2
30,Busselton,AU,1578442354,-33.64,115.35,21.33000000000004,293.71,295.37,1009,69,27,1.00665,71.99600000000005
31,Kjopsvik,NO,1578442643,68.1,16.37,4.240000000000009,277.15,277.59,975,80,100,17.2249,39.992
32,Klyuchi,RU,1578442643,52.25,79.17,-16.25,256.9,256.9,1032,90,52,2.34885,2.75
33,Saint George,GR,1578442377,39.45,22.34,0.7300000000000182,272.15,276.48,1026,66,40,6.9347,37.99400000000007
34,Saint Pete Beach,US,1578442643,27.73,-82.74,16.260000000000048,287.04,292.15,1022,72,1,4.9214,66.2
35,Mae Hong Son,MM,1578442643,19.3,97.96,15.0,288.15,288.15,1015,87,20,2.30411,59.0
36,Cidreira,BR,1578442643,-30.17,-50.22,23.920000000000016,297.07,297.07,1010,72,2,11.140260000000001,75.05600000000004
37,Rikitea,PF,1578442349,-23.12,-134.97,25.370000000000005,298.52,298.52,1017,77,11,18.85791,77.66600000000001
38,Sabang,PH,1578442644,13.8,121.11,23.660000000000025,296.81,296.81,1013,87,60,5.50302,74.58800000000005
39,Slave Lake,CA,1578442644,55.28,-114.77,-16.0,257.15,257.15,1013,77,90,12.750900000000001,3.1999999999999993
40,Ouargaye,BF,1578442644,11.5,0.06,26.450000000000045,299.6,299.6,1011,23,84,13.24304,79.61000000000008
41,Gongzhuling,CN,1578442644,43.5,124.81,-13.669999999999959,259.48,259.48,1024,96,100,7.33736,7.394000000000073
42,Pisco,PE,1578442507,-13.71,-76.2,21.83000000000004,294.82,295.15,1012,30,12,18.3434,71.6
43,Punta Arenas,CL,1578442350,-53.16,-70.91,13.430000000000007,285.93,287.15,980,47,92,12.750900000000001,57.2
44,Noshiro,JP,1578442644,40.21,140.05,1.5500000000000114,274.15,275.15,1005,100,75,6.9347,35.6
45,Nouadhibou,MR,1578442644,20.93,-17.03,15.0,288.15,288.15,1020,67,46,17.2249,59.0
46,Jalu,LY,1578442639,29.03,21.55,9.350000000000023,282.5,282.5,1023,80,7,9.015110000000002,48.83000000000004
47,Butaritari,KI,1578442645,3.07,172.79,29.189999999999998,302.34,302.34,1007,79,52,17.694670000000002,84.542
48,New Norfolk,AU,1578442359,-42.78,147.06,22.58000000000004,293.15,300.37,1019,42,20,6.9347,80.99600000000005
49,Konstantinovskiy,RU,1578442645,57.83,39.59,-2.0,271.15,271.15,1021,100,90,4.474,28.4
50,Hobart,AU,1578442645,-42.88,147.33,21.57000000000005,293.15,295.93,1019,42,20,6.9347,73.00400000000005
51,Vila do Maio,CV,1578442645,15.13,-23.22,21.0,294.15,294.15,1018,60,75,25.278100000000002,69.80000000000001
52,Bredasdorp,ZA,1578442645,-34.53,20.04,19.03000000000003,290.93,294.15,1005,88,0,4.6977,69.80000000000001
53,Upernavik,GL,1578442611,72.79,-56.15,-25.649999999999977,247.5,247.5,989,72,100,4.49637,-14.169999999999959
54,Hermanus,ZA,1578442646,-34.42,19.24,18.700000000000045,290.93,292.59,1000,94,0,8.008460000000001,66.99199999999999
55,Iqaluit,CA,1578442394,63.75,-68.52,-26.99999999999997,246.15,246.15,998,62,90,14.987900000000002,-16.59999999999995
56,Fernie,CA,1578442646,49.5,-115.06,-3.4899999999999523,264.82,274.15,1009,98,90,9.1717,33.8
57,Seoul,KR,1578441894,37.57,126.98,3.0,276.15,276.15,1011,100,90,4.6977,37.4
58,Najran,SA,1578442646,17.54,44.22,15.0,288.15,288.15,1020,72,0,4.6977,59.0
59,Pendleton,US,1578442646,34.65,-82.78,7.480000000000018,273.71,285.15,1021,31,1,14.987900000000002,53.6
60,Chokurdakh,RU,1578442352,70.62,147.9,-32.25999999999999,240.89,240.89,1011,93,0,5.74909,-26.067999999999984
61,Hamilton,CA,1578442549,43.26,-79.87,1.7300000000000182,273.15,276.48,1010,87,90,9.1717,37.99400000000007
62,Saint Anthony,US,1578442647,43.97,-111.68,-1.099999999999966,270.93,274.15,1019,80,90,4.6977,33.8
63,Castro,CL,1578442368,-42.48,-73.76,12.0,285.15,285.15,1002,81,90,6.9347,53.6
64,Dikson,RU,1578442649,73.51,80.55,-18.19999999999999,254.95,254.95,1008,97,93,8.74667,-0.7599999999999838
65,Albany,US,1578442541,42.65,-73.75,-0.9399999999999977,270.37,273.71,1011,63,90,4.6977,33.008
66,Katobu,ID,1578442649,-4.94,122.53,27.420000000000016,300.57,300.57,1009,82,72,3.26602,81.35600000000002
67,Cedar City,US,1578442608,37.68,-113.06,6.439999999999998,279.26,280.15,1021,36,1,13.8694,44.6
68,Saint-Philippe,CA,1578442378,45.36,-73.48,-3.7099999999999795,268.15,270.37,1014,73,90,3.3555,26.99600000000005
69,Hilo,US,1578442368,19.71,-155.08,24.610000000000014,295.37,303.15,1019,45,75,16.1064,86.0
70,Ahipara,NZ,1578442354,-35.17,173.16,23.33000000000004,296.48,296.48,1016,64,1,1.00665,73.99400000000009
71,Codrington,AU,1578442650,-28.95,153.24,28.07000000000005,300.37,302.15,1015,48,35,4.6977,84.2
72,Shangzhi,CN,1578442650,45.21,127.96,-16.19999999999999,256.95,256.95,1020,97,100,2.05804,2.840000000000021
73,Kaniama,CD,1578442650,-7.57,24.18,18.900000000000034,292.05,292.05,1012,95,99,2.237,66.02000000000007
74,Sao Filipe,CV,1578442361,14.9,-24.5,19.840000000000032,292.99,292.99,1017,74,96,23.57798,67.71200000000006
75,Cape Town,ZA,1578442593,-33.93,18.42,19.370000000000005,292.04,293.15,1006,100,75,5.8162,68.0
76,Mar del Plata,AR,1578442371,-46.43,-67.52,19.010000000000048,292.16,292.16,987,20,66,32.61546,66.21800000000009
77,Esperance,AU,1578442650,-33.86,121.89,22.0,295.15,295.15,1006,88,40,9.1717,71.6
78,Henties Bay,NA,1578442650,-22.12,14.28,18.33000000000004,291.48,291.48,1013,88,0,1.99093,64.99400000000009
79,Verkhoyansk,RU,1578442651,67.55,133.39,-29.349999999999966,243.8,243.8,1013,85,84,1.45405,-20.82999999999994
80,Port Alfred,ZA,1578442651,-33.59,26.89,20.0,293.15,293.15,1008,98,100,4.004230000000001,68.0
81,Banjar,ID,1578442651,-7.37,108.54,24.700000000000045,297.85,297.85,1009,89,76,0.80532,76.4600000000001
82,Lagoa,PT,1578442651,37.14,-8.45,10.760000000000048,282.15,285.37,1029,87,0,6.9347,53.99600000000005
83,Yellowknife,CA,1578442651,62.45,-114.38,-34.99999999999997,238.15,238.15,1024,73,40,3.3555,-30.99999999999995
84,Victoria,BN,1578442521,5.28,115.24,26.28000000000003,298.71,300.15,1010,88,75,4.6977,80.6
85,Ancud,CL,1578442652,-41.87,-73.83,13.0,286.15,286.15,1003,76,90,6.9347,55.400000000000006
86,Avarua,CK,1578442652,-21.21,-159.78,28.0,301.15,301.15,1014,78,68,8.0532,82.4
87,Ostrovnoy,RU,1578442394,68.05,39.51,1.420000000000016,274.57,274.57,996,96,100,17.26964,34.556000000000026
88,Terrace,CA,1578442652,54.52,-128.61,-4.0,269.15,269.15,1004,73,75,23.041100000000004,24.8
89,Pevek,RU,1578442652,69.7,170.27,-23.079999999999984,250.07,250.07,1014,76,0,13.489110000000002,-9.543999999999976
90,Tiznit,MA,1578442378,29.7,-9.73,9.590000000000032,282.74,282.74,1026,49,0,2.5278099999999997,49.26200000000006
91,Makakilo City,US,1578442408,21.35,-158.09,26.28000000000003,297.15,301.15,1019,51,75,11.4087,82.4
92,Port Keats,AU,1578442362,-14.25,129.55,29.460000000000036,302.61,302.61,1008,72,100,4.65296,85.02800000000008
93,Atuona,PF,1578442566,-9.8,-139.03,27.160000000000025,300.31,300.31,1011,78,9,14.27206,80.88800000000005
94,Kodiak,US,1578442653,39.95,-94.76,5.6200000000000045,278.15,279.82,1022,48,1,9.1717,44.00600000000003
95,Orsha,BY,1578442653,54.51,30.43,-0.8299999999999841,272.32,272.32,1028,93,98,8.276900000000001,30.50600000000003
96,Whithorn,JM,1578442653,18.26,-78.04,26.49000000000001,299.26,300.15,1017,74,40,6.9347,80.6
97,Vaini,IN,1578442540,15.34,74.49,17.58000000000004,290.73,290.73,1012,87,1,2.59492,63.64400000000008
98,Ilulissat,GL,1578442654,69.22,-51.1,-18.99999999999997,254.15,254.15,983,49,40,14.987900000000002,-2.199999999999953
99,Hawera,NZ,1578442654,-39.59,174.28,16.80000000000001,288.71,291.48,966,58,53,2.99758,64.99400000000009
100,Narsaq,GL,1578442357,60.91,-46.05,-12.0,261.15,261.15,990,78,77,2.237,10.399999999999999
101,Saskylakh,RU,1578442564,71.97,114.09,-19.74999999999997,253.4,253.4,1006,97,96,8.097940000000001,-3.5499999999999474
102,Namatanai,PG,1578442624,-3.66,152.44,29.78000000000003,302.93,302.93,1007,68,100,4.74244,85.60400000000006
103,Itupiranga,BR,1578442654,-5.13,-49.33,25.0,298.15,298.15,1012,100,100,2.237,77.0
104,Mwaro,BI,1578442654,-3.52,29.71,13.950000000000045,287.1,287.1,1014,89,100,3.53446,57.110000000000085
105,Magadan,RU,1578442655,59.56,150.8,-16.95999999999998,256.19,256.19,1010,88,66,11.94558,1.4720000000000368
106,Muravlenko,RU,1578442655,63.79,74.5,-19.19999999999999,253.95,253.95,1021,97,61,11.54292,-2.559999999999981
107,Carnarvon,ZA,1578442655,-30.97,22.13,18.980000000000018,292.13,292.13,1009,81,100,12.70616,66.16400000000004
108,Port Blair,IN,1578442655,11.67,92.75,26.33000000000004,299.48,299.48,1011,79,83,13.35489,79.39400000000008
109,Rio Grande,BR,1578442511,-32.03,-52.1,21.670000000000016,294.82,294.82,1009,62,0,1.00665,71.00600000000003
110,Mahajanga,MG,1578442655,-15.72,46.32,25.0,298.15,298.15,1011,100,20,2.237,77.0
111,Barrow,AR,1578442655,-38.31,-60.23,19.730000000000018,292.88,292.88,1002,44,0,9.8428,67.51400000000004
112,Dwarka,IN,1578442638,28.58,77.04,12.0,285.15,285.15,1013,87,75,5.010880000000001,53.6
113,Sioux Lookout,CA,1578442494,50.1,-91.92,-19.169999999999987,253.15,255.15,1014,77,75,10.2902,-0.39999999999994884
114,Margate,AU,1578442372,-43.03,147.26,22.590000000000032,293.15,300.37,1019,42,20,6.9347,80.99600000000005
115,Hit,IQ,1578442656,33.64,42.83,12.53000000000003,285.68,285.68,1015,52,11,12.191650000000001,54.55400000000006
116,Liptovsky Hradok,SK,1578442656,49.04,19.72,-10.889999999999986,258.71,269.82,1028,84,0,1.1185,26.00600000000003
117,Saint-Augustin,CA,1578442656,45.63,-73.98,-3.8700000000000045,268.15,270.37,1014,73,90,6.9347,26.99600000000005
118,Banes,CU,1578442656,20.96,-75.72,24.0,297.15,297.15,1018,83,20,6.9347,75.2
119,Kiruna,SE,1578442411,67.86,20.23,0.0,273.15,273.15,980,88,100,19.4619,32.0
120,Sola,TZ,1578442657,-3.17,33.8,18.160000000000025,291.31,291.31,1012,89,13,1.58827,64.68800000000005
121,Grindavik,IS,1578442657,63.84,-22.43,-3.4799999999999613,269.15,270.15,962,100,90,40.266000000000005,26.6
122,Esso,RU,1578442657,55.93,158.7,-16.239999999999952,256.91,256.91,1006,93,99,2.48307,2.768000000000086
123,Katsuura,JP,1578442405,33.93,134.5,14.29000000000002,286.48,288.15,1004,82,20,10.2902,59.0
124,Yulara,AU,1578442657,-25.24,130.99,30.0,303.15,303.15,1012,33,100,16.1064,86.0
125,Tanabe,JP,1578442657,33.73,135.39,15.379999999999995,287.04,291.15,1004,88,75,6.9347,64.4
126,Karpogory,RU,1578442658,64.0,44.44,-3.6299999999999955,269.52,269.52,1012,93,100,10.64812,25.466000000000008
127,Oksfjord,NO,1578442658,70.24,22.35,0.17000000000001592,272.04,276.15,982,85,58,21.922600000000003,37.4
128,Alofi,NU,1578442384,-19.06,-169.92,26.0,299.15,299.15,1012,78,75,11.4087,78.80000000000001
129,Annau,TM,1578442618,37.89,58.52,1.0,274.15,274.15,1021,100,90,2.237,33.8
130,Buchanan,LR,1578442659,5.88,-10.05,24.0,297.15,297.15,1012,94,20,3.44498,75.2
131,Bilibino,RU,1578442659,68.06,166.44,-33.24999999999997,239.9,239.9,1016,90,0,2.99758,-27.84999999999995
132,Gazanjyk,TM,1578442659,39.24,55.52,2.0100000000000477,275.16,275.16,1020,69,9,8.5006,35.61800000000009
133,Bogorodskoye,RU,1578442659,52.37,140.44,-17.45999999999998,255.69,255.69,1015,96,100,2.61729,0.5720000000000347
134,Mayumba,GA,1578442390,-3.44,10.65,27.28000000000003,300.43,300.43,1010,75,100,1.65538,81.10400000000006
135,Port Lincoln,AU,1578442659,-34.72,135.86,23.840000000000032,296.99,296.99,1014,48,0,7.87424,74.91200000000006
136,Bridlington,GB,1578442660,54.08,-0.19,12.379999999999995,284.82,286.48,1010,82,57,14.987900000000002,55.99400000000007
137,Kysyl-Syr,RU,1578442660,63.9,122.77,-16.92999999999995,256.22,256.22,1012,97,99,2.5278099999999997,1.5260000000000886
138,Ouadda,CF,1578442660,8.07,22.4,21.060000000000002,294.21,294.21,1011,29,15,5.63724,69.90800000000002
139,Lasa,CY,1578442660,34.92,32.53,10.810000000000002,281.48,286.15,1008,82,75,11.4087,55.400000000000006
140,Piacabucu,BR,1578442660,-10.41,-36.43,25.689999999999998,298.84,298.84,1013,78,0,9.015110000000002,78.24199999999999
141,Portland,US,1578442660,43.66,-70.25,-1.8700000000000045,269.82,273.71,1015,73,100,3.3555,33.008
142,Mandalgovi,MN,1578442661,45.76,106.27,-17.22999999999999,255.92,255.92,1033,77,21,4.94377,0.9860000000000184
143,Yantal,RU,1578442661,56.85,105.25,-14.519999999999982,258.63,258.63,1027,92,15,3.6463099999999997,5.864000000000033
144,Nemuro,JP,1578442368,43.32,145.57,-5.0,268.15,268.15,1017,85,75,5.41354,23.0
145,Acapulco,MX,1578442661,16.86,-99.88,28.0,301.15,301.15,1013,78,40,3.3555,82.4
146,Gushikawa,JP,1578442661,26.35,127.87,20.310000000000002,292.15,294.82,1020,88,90,16.1064,71.00600000000003
147,Kapaa,US,1578442428,22.08,-159.32,25.610000000000014,297.04,300.15,1021,61,40,24.1596,80.6
148,Mayo,CA,1578442661,63.59,-135.9,-24.99999999999997,248.15,248.15,1013,62,90,6.9347,-12.99999999999995
149,Palmer,AU,1578442661,-34.85,139.16,29.010000000000048,301.48,302.59,1017,25,1,9.3954,84.99199999999999
150,Pudozh,RU,1578442662,61.81,36.54,2.390000000000043,275.54,275.54,1011,95,100,10.871820000000001,36.30200000000008
151,Qaanaaq,GL,1578442662,77.48,-69.36,-31.94999999999999,241.2,241.2,987,81,15,1.07376,-25.509999999999984
152,Zimbor,RO,1578442662,47.0,23.26,-13.549999999999955,257.59,260.93,1031,84,0,2.237,10.004000000000051
153,Manzanillo,MX,1578442662,19.05,-104.32,28.0,301.15,301.15,1012,74,5,5.8162,82.4
154,Mahebourg,MU,1578442372,-20.41,57.7,25.49000000000001,298.15,299.15,1012,88,75,2.93047,78.80000000000001
155,Airai,TL,1578442662,-8.93,125.41,25.260000000000048,298.41,298.41,1008,57,49,1.74486,77.46800000000009
156,Georgetown,GY,1578442494,6.8,-58.16,26.450000000000045,299.15,300.15,1013,83,75,6.9347,80.6
157,Oktyabrskiy,RU,1578442663,55.61,37.97,-0.16999999999995907,272.15,274.26,1024,95,90,6.711,33.998000000000026
158,East London,ZA,1578442663,-33.02,27.91,23.730000000000018,296.88,296.88,1011,88,100,17.06831,74.71400000000003
159,Nanortalik,GL,1578442663,60.14,-45.24,-5.849999999999966,267.3,267.3,991,88,100,4.31741,21.470000000000063
160,Torbay,CA,1578442663,47.66,-52.73,-5.560000000000002,266.48,268.71,1015,79,90,5.8162,24.008000000000003
161,Samarai,PG,1578442393,-10.62,150.67,30.090000000000032,303.24,303.24,1008,62,100,5.45828,86.16200000000006
162,Souillac,FR,1578442614,45.6,-0.6,10.370000000000005,282.15,284.26,1031,100,90,5.8162,51.998000000000026
163,Bismarck,US,1578442661,46.81,-100.78,-12.589999999999975,258.15,262.15,1024,61,1,5.8162,12.2
164,Alihe,CN,1578442663,50.57,123.73,-19.169999999999987,253.98,253.98,1029,91,0,3.98186,-2.505999999999979
165,Lima,PE,1578441825,-12.06,-77.04,24.0,297.15,297.15,1013,73,20,13.8694,75.2
166,Chuy,UY,1578442393,-33.69,-53.46,18.870000000000005,292.02,292.02,1011,61,0,7.91898,65.96600000000001
167,Port Elizabeth,US,1578442574,39.31,-74.98,2.3500000000000227,273.15,278.15,1011,93,90,8.0532,41.0
168,Tornio,FI,1578442664,61.12,27.27,3.330000000000041,276.15,277.15,1009,93,90,12.750900000000001,39.2
169,Half Moon Bay,US,1578442664,37.46,-122.43,12.430000000000007,283.71,287.59,1021,76,90,14.987900000000002,57.992
170,Loandjili,CG,1578442664,-4.77,11.87,28.0,301.15,301.15,1010,83,40,4.6977,82.4
171,Rawson,AR,1578442664,-43.3,-65.11,22.470000000000027,295.62,295.62,992,36,36,25.0544,72.44600000000005
172,Kaeo,NZ,1578442664,-35.1,173.78,22.200000000000045,294.26,296.48,1016,64,40,1.99093,73.99400000000009
173,Ballina,IE,1578442665,54.11,-9.15,7.360000000000014,279.26,281.48,1014,84,100,7.00181,46.99400000000007
174,Saint-Francois,FR,1578442398,46.42,3.91,6.75,279.82,280.15,1030,87,90,3.3555,44.6
175,Cabo San Lucas,MX,1578442507,22.89,-109.91,22.379999999999995,293.71,297.04,1016,68,20,10.2902,75.00200000000008
176,Fort Nelson,CA,1578442386,58.81,-122.69,-28.99999999999997,244.15,244.15,1018,68,20,2.237,-20.199999999999953
177,Lebu,ET,1578442665,8.96,38.73,11.230000000000018,284.38,284.38,1017,90,87,1.99093,52.214000000000034
178,Ambilobe,MG,1578442665,-13.19,49.05,24.400000000000034,297.55,297.55,1011,91,36,4.38452,75.92000000000007
179,Mount Gambier,AU,1578442665,-37.83,140.78,22.0,295.15,295.15,1018,56,89,11.4087,71.6
180,Salta,AR,1578442515,-24.79,-65.41,22.090000000000032,294.15,296.15,1013,77,75,6.9347,73.4
181,Kongolo,CD,1578442666,-5.39,27.0,20.590000000000032,293.74,293.74,1010,96,97,1.27509,69.06200000000007
182,Meulaboh,ID,1578442666,4.14,96.13,26.629999999999995,299.78,299.78,1010,77,98,6.80048,79.934
183,Talnakh,RU,1578442666,69.49,88.39,-16.0,257.15,257.15,1007,91,75,20.133000000000003,3.1999999999999993
184,Kloulklubed,PW,1578442383,7.04,134.26,29.0,302.15,302.15,1011,70,75,16.1064,84.2
185,Tweed,CA,1578442615,44.48,-77.31,0.32000000000005,271.48,275.37,1012,69,90,3.3555,35.99600000000005
186,Ponta do Sol,BR,1578442666,-20.63,-46.0,21.430000000000007,294.58,294.58,1012,93,99,5.10036,70.57400000000001
187,San Quintin,PH,1578442666,17.54,120.52,22.629999999999995,295.78,295.78,1014,74,32,3.75816,72.734
188,Ribeira Grande,PT,1578442667,38.52,-28.7,15.970000000000027,289.12,289.12,1028,91,20,15.56952,60.74600000000005
189,Ternate,PH,1578442667,14.29,120.72,26.57000000000005,299.26,300.15,1013,78,20,3.3555,80.6
190,Naze,NG,1578442667,5.43,7.07,24.0,297.15,297.15,1010,78,100,3.75816,75.2
191,Beloha,MG,1578442667,-25.17,45.06,22.090000000000032,295.24,295.24,1011,88,0,8.54534,71.76200000000006
192,Tiksi,RU,1578442667,71.64,128.87,-22.43999999999997,250.71,250.71,1008,89,97,5.391170000000001,-8.391999999999946
193,Khatanga,RU,1578442667,71.98,102.47,-14.889999999999986,258.26,258.26,1007,95,94,9.52962,5.198000000000025
194,Abonnema,NG,1578442667,4.71,6.79,24.0,297.15,297.15,1010,78,100,7.8295,75.2
195,Srednekolymsk,RU,1578442399,67.46,153.71,-29.069999999999965,244.08,244.08,1013,95,49,3.89238,-20.325999999999937
196,Lianzhou,CN,1578442668,24.79,112.38,7.03000000000003,280.18,280.18,1024,81,11,6.2636,44.65400000000005
197,Kattivakkam,IN,1578442668,13.22,80.32,25.03000000000003,297.15,298.71,1013,88,20,2.237,78.00800000000001
198,Mae Sai,MM,1578442668,20.44,99.89,17.0,290.15,290.15,1015,100,40,1.90145,62.6
199,Petropavlovsk-Kamchatskiy,RU,1578442668,53.05,158.65,-10.0,263.15,263.15,1002,66,96,4.474,14.0
200,Raudeberg,NO,1578442391,61.99,5.14,9.710000000000036,282.59,283.15,984,81,100,29.975800000000003,50.0
201,Zaraza,VE,1578442668,9.35,-65.33,23.900000000000034,297.05,297.05,1013,84,65,7.78476,75.02000000000007
202,Sao Joao da Barra,BR,1578442668,-21.64,-41.05,25.80000000000001,298.95,298.95,1010,88,85,17.56045,78.44000000000003
203,Provideniya,RU,1578442669,64.42,-173.23,-24.169999999999987,248.98,248.98,1024,91,0,1.43168,-11.505999999999979
204,Severo-Kurilsk,RU,1578442669,50.68,156.12,-5.7999999999999545,267.35,267.35,1006,90,59,13.15356,21.56000000000008
205,Cabra,ES,1578442665,37.47,-4.43,4.310000000000002,274.15,281.48,1030,93,0,1.1185,46.99400000000007
206,Christchurch,NZ,1578442669,-43.53,172.64,15.920000000000016,287.04,290.93,1016,58,35,3.3555,64.00400000000005
207,Ulaangom,MN,1578442669,49.98,92.07,-25.519999999999982,247.63,247.63,1039,91,99,1.20798,-13.935999999999972
208,Flin Flon,CA,1578442669,54.77,-101.88,-24.99999999999997,248.15,248.15,1024,69,20,5.8162,-12.99999999999995
209,Manakara,MG,1578442669,-22.14,48.01,23.890000000000043,297.04,297.04,1013,89,99,1.02902,75.00200000000008
210,Kaitangata,NZ,1578442670,-46.28,169.85,14.439999999999998,287.59,287.59,1014,60,76,5.99516,57.992
211,Vanersborg,SE,1578442670,58.38,12.32,5.9500000000000455,278.15,279.82,1004,93,100,21.922600000000003,44.00600000000003
212,Dombarovskiy,RU,1578442670,50.76,59.54,-12.759999999999991,260.39,260.39,1031,97,100,1.70012,9.032000000000014
213,Schruns,AT,1578442670,47.08,9.92,-1.7399999999999523,263.15,274.26,1030,100,0,2.237,33.998000000000026
214,Chapais,CA,1578442374,49.78,-74.86,-11.0,262.15,262.15,1004,85,90,10.2902,12.2
215,Suluq,LY,1578442670,31.67,20.25,10.82000000000005,283.97,283.97,1023,78,54,11.699510000000002,51.47600000000009
216,Moose Factory,CA,1578442670,51.26,-80.61,-9.0,264.15,264.15,1003,78,90,11.4087,15.8
217,Sobolevo,RU,1578442670,54.43,31.9,-1.17999999999995,271.97,271.97,1028,95,83,8.90326,29.87600000000009
218,Conde,BR,1578442671,-11.81,-37.61,26.660000000000025,299.81,299.81,1013,78,0,15.39056,79.98800000000006
219,Olavarria,AR,1578442671,-36.89,-60.32,23.890000000000043,297.04,297.04,993,46,0,2.99758,75.00200000000008
220,Santa Maria,BR,1578442662,-16.02,-48.01,23.33000000000004,295.93,297.15,1018,83,75,6.9347,75.2
221,Charters Towers,AU,1578442672,-20.07,146.27,29.730000000000018,302.88,302.88,1012,50,79,12.05743,85.51400000000004
222,Saldanha,PT,1578442672,41.42,-6.55,3.8500000000000227,277.0,277.0,1033,75,54,1.67775,38.93000000000004
223,Aklavik,CA,1578442562,68.22,-135.01,-38.39999999999998,232.15,236.15,1027,64,5,3.3555,-34.59999999999995
224,Honiara,SB,1578442500,-9.43,159.96,32.0,305.15,305.15,1008,66,40,10.2902,89.6
225,Vokhma,RU,1578442672,58.93,46.76,-7.92999999999995,265.22,265.22,1025,96,100,8.34401,17.72600000000009
226,Sorong,ID,1578442672,-0.86,131.25,24.910000000000025,298.06,298.06,1010,96,100,1.00665,76.83800000000005
227,Dubbo,AU,1578442672,-32.25,148.6,32.0,305.15,305.15,1014,46,44,8.0532,89.6
228,Ola,RU,1578442459,59.58,151.3,-18.99999999999997,254.15,254.15,1010,92,62,8.79141,-2.199999999999953
229,Pilar,AR,1578442673,-34.46,-58.91,25.090000000000032,296.48,300.37,1007,50,0,8.0532,80.99600000000005
230,Hami,CN,1578442673,42.84,93.51,-9.71999999999997,263.43,263.43,1029,59,0,3.91475,14.504000000000051
231,Ravar,IR,1578442673,31.27,56.81,3.7700000000000387,276.92,276.92,1022,45,0,2.70677,38.78600000000007
232,Thompson,CA,1578442521,55.74,-97.86,-24.99999999999997,248.15,248.15,1022,75,75,5.8162,-12.99999999999995
233,Maragogi,BR,1578442673,-9.01,-35.22,26.930000000000007,300.08,300.08,1013,72,0,12.70616,80.47400000000002
234,Bethel,US,1578442673,60.79,-161.76,-27.24999999999997,245.15,247.15,1018,68,1,17.2249,-14.799999999999947
235,Bolu,TR,1578442674,40.73,31.61,0.32000000000005,273.47,273.47,1016,98,100,6.509670000000001,32.57600000000009
236,Willowmore,ZA,1578442674,-33.3,23.49,17.05000000000001,290.2,290.2,1009,88,77,6.06227,62.690000000000026
237,Westport,US,1578442674,41.14,-73.36,2.670000000000016,274.26,277.59,1013,60,90,9.1717,39.992
238,Bowen,AU,1578442422,-20.01,148.25,29.870000000000005,302.15,304.26,1013,66,40,14.987900000000002,87.99800000000002
239,Changying,CN,1578442674,52.87,123.32,-20.609999999999985,252.54,252.54,1029,90,15,4.40689,-5.097999999999978
240,Gorontalo,ID,1578442674,0.54,123.06,24.560000000000002,297.71,297.71,1011,89,100,8.14268,76.208
241,Clyde River,CA,1578442674,70.47,-68.59,-28.99999999999997,244.15,244.15,988,50,20,6.9347,-20.199999999999953
242,Los Llanos de Aridane,ES,1578442401,28.66,-17.92,17.0,288.15,292.15,1029,68,75,13.8694,66.2
243,Ilula,TZ,1578442388,-7.68,36.04,16.340000000000032,289.49,289.49,1013,96,35,4.138450000000001,61.41200000000006
244,Volda,NO,1578442675,62.15,6.07,7.980000000000018,277.04,283.15,979,76,100,29.975800000000003,50.0
245,Port Maria,JM,1578442675,18.37,-76.89,26.420000000000016,298.15,301.15,1016,78,20,10.2902,82.4
246,Port Moresby,PG,1578442675,-9.47,147.16,30.0,303.15,303.15,1009,70,75,5.8162,86.0
247,Nabisar,PK,1578442675,25.07,69.64,11.520000000000039,284.67,284.67,1015,82,0,7.583430000000001,52.736000000000075
248,Faya,SA,1578442675,18.39,42.45,14.0,287.15,287.15,1025,87,40,14.987900000000002,57.2
249,Nizwa,OM,1578442675,22.93,57.53,13.510000000000048,286.66,286.66,1017,62,0,1.45405,56.31800000000008
250,Linden,GY,1578442675,6.01,-58.31,26.0,299.15,299.15,1013,88,90,4.6977,78.80000000000001
251,Tripoli,GR,1578442675,37.51,22.37,4.2900000000000205,272.59,281.48,1021,51,0,5.8162,46.99400000000007
252,Selma,US,1578442675,32.41,-87.02,10.090000000000032,282.59,284.26,1026,40,0,8.0532,51.998000000000026
253,Dawei,MM,1578442676,14.07,98.19,25.170000000000016,298.32,298.32,1012,65,53,6.86759,77.30600000000004
254,Broken Hill,AU,1578442380,-31.97,141.45,28.0,301.15,301.15,1015,24,0,13.8694,82.4
255,Urucui,BR,1578442676,-7.23,-44.56,24.310000000000002,297.46,297.46,1012,85,97,5.212210000000001,75.75800000000001
256,Dinghai,CN,1578442676,26.28,119.79,14.0,287.15,287.15,1023,62,0,4.474,57.2
257,Norman Wells,CA,1578442676,65.28,-126.83,-40.99999999999997,232.15,232.15,1027,64,20,2.237,-41.799999999999955
258,Lompoc,US,1578442676,34.64,-120.46,15.5,286.48,291.48,1020,82,75,13.8694,64.99400000000009
259,Baykit,RU,1578442676,61.68,96.39,-17.24999999999997,255.9,255.9,1024,98,99,1.74486,0.950000000000049
260,Trelew,AR,1578442676,-43.25,-65.31,23.870000000000005,297.02,297.02,992,19,11,31.69829,74.96600000000001
261,Yeppoon,AU,1578442676,-23.13,150.74,29.0,302.15,302.15,1015,51,20,4.6977,84.2
262,Constitucion,MX,1578442677,23.99,-104.67,20.0,293.15,293.15,1026,15,5,5.8162,68.0
263,Sambava,MG,1578442677,-14.27,50.17,22.510000000000048,295.66,295.66,1012,97,71,1.74486,72.51800000000009
264,Viransehir,TR,1578442677,37.24,39.76,6.770000000000039,279.92,279.92,1016,76,22,14.11547,44.18600000000007
265,Azul,AR,1578442677,-36.78,-59.86,23.890000000000043,297.04,297.04,993,46,0,2.99758,75.00200000000008
266,May Pen,JM,1578442677,17.97,-77.26,26.220000000000027,298.15,301.15,1016,78,20,10.2902,82.4
267,Kamwenge,UG,1578442677,0.19,30.45,17.80000000000001,290.95,290.95,1012,83,29,1.67775,64.04000000000002
268,Brigantine,US,1578442677,39.41,-74.36,3.0200000000000387,273.71,278.15,1012,94,90,9.1717,41.0
269,Komsomolskiy,RU,1578442677,67.55,63.78,-16.379999999999995,256.77,256.77,1018,96,99,7.89661,2.516000000000009
270,Prince Rupert,CA,1578442677,54.32,-130.32,2.0,275.15,275.15,1003,74,75,10.2902,35.6
271,Lorengau,PG,1578442678,-2.02,147.27,25.80000000000001,298.95,298.95,1009,92,100,11.6324,78.44000000000003
272,Marsh Harbour,BS,1578442604,26.54,-77.06,21.5,294.65,294.65,1022,60,27,7.404470000000001,70.7
273,College,US,1578442386,64.86,-147.8,-31.369999999999976,240.15,243.15,1021,67,75,1.67775,-21.99999999999995
274,Isangel,VU,1578442678,-19.55,169.27,28.0,301.15,301.15,1012,65,75,11.4087,82.4
275,Simpang Empat,MY,1578442678,6.02,100.38,25.760000000000048,298.15,300.15,1011,94,20,2.237,80.6
276,Syracuse,US,1578441992,43.05,-76.15,-0.06999999999999318,270.93,274.82,1012,100,90,3.3555,35.00600000000003
277,Kahului,US,1578442678,20.89,-156.47,24.120000000000005,295.37,300.15,1019,57,40,20.804100000000002,80.6
278,Port-Gentil,GA,1578442679,-0.72,8.78,26.0,299.15,299.15,1011,100,20,13.24304,78.80000000000001
279,Whitehorse,CA,1578442500,60.72,-135.06,-22.96999999999997,249.82,250.37,1006,76,90,5.8162,-9.003999999999955
280,State College,US,1578442503,40.79,-77.86,-1.7199999999999704,269.82,272.59,1014,100,100,3.3555,30.991999999999997
281,Pestravka,RU,1578442679,52.4,49.95,-7.25,265.9,265.9,1029,96,99,3.19891,18.95
282,Bonavista,CA,1578442679,48.65,-53.11,-5.560000000000002,267.59,267.59,1016,83,90,9.48488,21.991999999999997
283,Sale,AU,1578442679,-38.11,147.06,20.29000000000002,293.15,293.71,1018,85,100,1.00665,69.00800000000001
284,Dingle,PH,1578442679,11.0,122.67,24.5,297.65,297.65,1012,90,100,9.6191,76.1
285,Rodney,CA,1578442679,42.57,-81.68,1.5400000000000205,274.15,275.37,1010,80,90,9.1717,35.99600000000005
286,Atikokan,CA,1578442680,48.76,-91.62,-20.059999999999974,253.09,253.09,1020,89,100,10.46916,-4.107999999999954
287,Coquimbo,CL,1578442680,-29.95,-71.34,18.0,291.15,291.15,1014,77,0,8.0532,64.4
288,Rosarito,CO,1578442680,4.91,-75.23,23.360000000000014,293.15,299.15,1017,69,20,4.6977,78.80000000000001
289,Otradnoye,RU,1578442680,59.77,30.8,3.5300000000000296,276.48,277.15,1014,80,90,8.948,39.2
290,Progreso,UY,1578442680,-34.68,-56.22,24.610000000000014,295.37,300.37,1007,31,0,4.6977,80.99600000000005
291,Ciudad Bolivar,VE,1578442578,8.12,-63.55,27.27000000000004,300.42,300.42,1012,49,5,11.07315,81.08600000000007
292,De-Kastri,RU,1578442680,51.48,140.77,-11.379999999999995,261.77,261.77,1015,78,84,6.73337,11.516000000000009
293,Havelock,US,1578442438,34.88,-76.9,12.379999999999995,284.15,287.15,1017,54,20,13.8694,57.2
294,Muli,CN,1578442681,28.08,109.56,3.930000000000007,277.08,277.08,1024,92,100,8.25453,39.07400000000001
295,Alice Springs,AU,1578442681,-23.7,133.88,33.0,306.15,306.15,1012,26,91,14.987900000000002,91.4
296,Bjornevatn,NO,1578442681,69.67,29.98,-1.0,272.15,272.15,988,100,83,13.8694,30.2
297,Sibolga,ID,1578442681,1.74,98.78,21.010000000000048,294.16,294.16,1010,95,68,3.71342,69.8180000000001
298,Hanzhong,CN,1578442681,33.08,107.03,2.7800000000000296,275.93,275.93,1024,73,95,1.38694,37.004000000000055
299,Tefe,BR,1578442681,-3.35,-64.71,30.0,303.15,303.15,1008,74,20,2.237,86.0
300,Lavrentiya,RU,1578442681,65.58,-170.99,-24.69999999999999,248.45,248.45,1024,93,37,2.237,-12.45999999999998
301,Arman,RU,1578442682,59.7,150.17,-12.120000000000005,261.03,261.03,1010,82,100,8.52297,10.18399999999999
302,Providencia,CO,1578442682,1.24,-77.6,16.460000000000036,287.15,292.15,1019,82,40,5.8162,66.2
303,Challans,FR,1578442566,46.85,-1.88,11.240000000000009,284.15,285.15,1028,100,90,10.2902,53.6
304,Kieta,PG,1578442682,-6.22,155.63,29.5,302.65,302.65,1007,70,58,3.6239400000000006,85.1
305,Goderich,CA,1578442682,43.74,-81.71,1.1100000000000136,272.04,275.93,1008,83,95,14.40628,37.004000000000055
306,Port Hedland,AU,1578442664,-20.31,118.58,26.0,299.15,299.15,996,88,75,25.278100000000002,78.80000000000001
307,Kurchum,KZ,1578442682,48.57,83.65,-16.72999999999996,256.42,256.42,1034,91,76,1.16324,1.8860000000000703
308,Languyan,FR,1578442682,48.3,-3.83,11.950000000000045,284.82,285.15,1024,100,90,17.2249,53.6
309,Yarmouth,CA,1578442683,43.84,-66.12,-0.5299999999999727,271.48,273.71,1018,63,75,6.9347,33.008
310,Nishihara,JP,1578442683,35.74,139.53,4.840000000000032,275.93,279.82,1007,93,75,4.6977,44.00600000000003
311,Moron,HT,1578442683,18.56,-74.26,25.140000000000043,298.29,298.29,1017,78,1,9.283550000000002,77.25200000000008
312,Bakchar,RU,1578442683,57.02,82.07,-11.46999999999997,261.68,261.68,1029,96,89,2.21463,11.354000000000052
313,Berlevag,NO,1578442684,70.86,29.09,2.0,275.15,275.15,985,87,75,13.8694,35.6
314,Cayenne,GF,1578442684,4.94,-52.33,27.0,300.15,300.15,1013,83,90,4.6977,80.6
315,Thai Binh,VN,1578442684,20.45,106.33,20.0,293.15,293.15,1017,100,18,5.95042,68.0
316,Cherskiy,RU,1578442684,68.75,161.3,-28.539999999999964,244.61,244.61,1013,74,0,8.99274,-19.371999999999936
317,Nijar,ES,1578442684,36.97,-2.21,7.25,279.82,281.15,1029,93,6,6.9347,46.4
318,Port Augusta,AU,1578442684,-32.49,137.76,27.400000000000034,298.15,304.26,1014,53,0,9.1717,87.99800000000002
319,Tadine,NC,1578442684,-21.55,167.88,26.77000000000004,299.92,299.92,1014,58,87,11.8561,80.18600000000006
320,Puerto Escondido,MX,1578442684,15.86,-97.07,29.0,302.15,302.15,1013,70,5,1.5435299999999998,84.2
321,Leningradskiy,RU,1578442684,69.38,178.42,-24.48999999999998,248.66,248.66,1018,91,77,11.02841,-12.081999999999965
322,Madang,CN,1578442685,35.32,102.79,-7.669999999999959,265.48,265.48,1020,80,97,1.00665,18.194000000000074
323,Vilyuysk,RU,1578442685,63.75,121.63,-12.95999999999998,260.19,260.19,1012,96,91,6.57678,8.672000000000036
324,Polunochnoye,RU,1578442685,60.87,60.43,-12.939999999999998,260.21,260.21,1025,89,22,4.74244,8.708000000000002
325,Central Point,US,1578442685,42.38,-122.91,5.07000000000005,275.15,281.48,1015,86,75,3.3555,46.99400000000007
326,Usinsk,RU,1578442685,66.0,57.56,-15.509999999999991,257.64,257.64,1018,96,95,12.16928,4.082000000000015
327,Shibetsu,JP,1578442685,44.15,142.46,-13.0,260.15,260.15,1014,92,75,1.1185,8.599999999999998
328,Takestan,IR,1578442685,36.07,49.69,-2.0,271.15,271.15,1021,79,0,4.6977,28.4
329,Carbonia,IT,1578442686,39.17,8.53,10.840000000000032,283.15,284.82,1025,93,20,3.3555,53.00600000000003
330,Bollnas,SE,1578442686,61.35,16.39,6.110000000000014,279.26,279.26,995,73,100,9.99939,42.998000000000026
331,Griffith,AU,1578442686,-34.29,146.06,25.960000000000036,298.15,301.48,1014,50,16,4.6977,82.99400000000009
332,Sitka,US,1578442686,37.17,-99.65,10.0,283.15,283.15,1024,33,0,5.99516,50.0
333,Kununurra,AU,1578442686,-15.77,128.74,29.0,302.15,302.15,1007,74,90,9.1717,84.2
334,Abalak,NE,1578442403,15.46,6.28,17.5,290.65,290.65,1015,17,73,15.23397,63.5
335,Lucban,PH,1578442686,14.11,121.55,23.720000000000027,296.87,296.87,1013,85,4,5.74909,74.69600000000005
336,Khandyga,RU,1578442687,62.65,135.58,-20.279999999999973,252.87,252.87,1014,98,94,1.7896,-4.503999999999955
337,Vila Velha,BR,1578442687,-3.71,-38.6,28.53000000000003,300.37,303.15,1012,78,75,6.9347,86.0
338,Mwense,ZM,1578442687,-10.39,28.7,18.980000000000018,292.13,292.13,1012,96,100,2.19226,66.16400000000004
339,Strezhevoy,RU,1578442687,60.73,77.6,-17.99999999999997,255.15,255.15,1025,84,44,4.474,-0.39999999999994884
340,Flinders,AU,1578442424,-34.58,150.85,23.74000000000001,295.93,298.71,1016,60,75,11.4087,78.00800000000001
341,Yamada,JP,1578442687,36.58,137.08,12.54000000000002,284.82,287.15,1002,93,75,6.9347,57.2
342,Coahuayana,MX,1578442687,18.62,-100.35,27.600000000000023,300.75,300.75,1015,33,40,2.28174,81.68000000000004
343,George Town,MY,1578442629,5.42,100.33,26.260000000000048,298.71,300.15,1009,74,20,6.9347,80.6
344,Saravan,AM,1578442688,39.72,45.65,-3.0,270.15,270.15,1020,79,18,6.9347,26.6
345,San Patricio,PY,1578442688,-26.98,-56.83,25.28000000000003,298.43,298.43,1006,30,0,4.27267,77.50400000000005
346,Kathmandu,NP,1578442634,27.71,85.32,8.0,281.15,281.15,1018,100,75,3.3555,46.4
347,Tautira,PF,1578442414,-17.73,-149.15,30.74000000000001,303.71,304.15,1010,66,40,6.9347,87.80000000000001
348,Hobyo,SO,1578442688,5.35,48.53,24.810000000000002,297.96,297.96,1012,80,92,13.847030000000002,76.65800000000002
349,Uglegorsk,RU,1578442688,49.08,142.06,-9.579999999999984,263.57,263.57,1014,79,0,3.93712,14.756000000000029
350,Thunder Bay,CA,1578442688,48.41,-89.26,-13.21999999999997,259.82,260.15,1012,60,75,16.1064,8.599999999999998
351,Geraldton,CA,1578442688,49.72,-86.95,-15.0,258.15,258.15,1007,71,75,8.0532,5.0
352,Karratha,AU,1578442689,-20.74,116.85,29.560000000000002,302.71,302.71,1001,70,100,14.40628,85.208
353,Zhezkazgan,KZ,1578442689,47.8,67.71,-15.699999999999989,257.45,257.45,1033,99,72,1.1185,3.7400000000000198
354,Corrales,CO,1578442689,5.83,-72.84,8.800000000000011,281.95,281.95,1014,96,27,1.07376,47.84000000000002
355,Sinnamary,GF,1578442689,5.38,-52.96,26.980000000000018,300.13,300.13,1013,84,35,18.70132,80.56400000000004
356,Palampur,IN,1578442689,32.11,76.54,6.210000000000036,279.36,279.36,1017,80,97,3.1318,43.17800000000007
357,Segou,SN,1578442689,12.41,-12.29,18.930000000000007,292.08,292.08,1012,19,47,2.43833,66.07400000000001
358,Svetlogorsk,RU,1578442689,53.14,59.15,-7.0,266.15,266.15,1025,100,90,6.711,19.4
359,Fairbanks,US,1578442629,64.84,-147.72,-31.629999999999967,239.15,243.15,1021,73,20,1.02902,-21.99999999999995
360,Qasigiannguit,GL,1578442690,68.82,-51.19,-18.99999999999997,254.15,254.15,983,49,40,14.987900000000002,-2.199999999999953
361,Ughelli,NG,1578442690,5.49,6.0,25.02000000000004,298.17,298.17,1009,78,96,3.5792,77.03600000000007
362,Champerico,MX,1578442690,16.38,-93.6,23.0,296.15,296.15,1020,60,40,18.3434,73.4
363,Xining,CN,1578442690,36.62,101.77,-8.45999999999998,264.69,264.69,1021,66,100,4.78718,16.772000000000034
364,Puerto del Rosario,ES,1578442690,28.5,-13.86,16.860000000000014,289.15,291.15,1027,72,40,18.3434,64.4
365,Mana,NG,1578442690,13.03,5.27,19.99000000000001,293.14,293.14,1012,20,76,12.16928,67.98200000000003
366,Balkhash,KZ,1578442690,46.84,74.98,-10.169999999999959,262.98,262.98,1033,90,99,2.4607,13.694000000000074
367,Touros,BR,1578442690,-5.2,-35.46,27.0,300.15,300.15,1013,83,40,8.0532,80.6
368,Nuuk,GL,1578442690,64.17,-51.74,-17.120000000000005,255.93,256.15,986,84,90,13.8694,1.3999999999999986
369,Te Anau,NZ,1578442395,-45.41,167.72,10.140000000000043,283.29,283.29,1015,72,100,4.11608,50.25200000000008
370,Srisailam,IN,1578442691,16.07,78.87,18.640000000000043,291.79,291.79,1014,99,77,3.24365,65.55200000000008
371,Mount Darwin,ZW,1578442691,-16.77,31.58,19.930000000000007,293.08,293.08,1012,85,26,2.4607,67.87400000000002
372,Punta de Bombon,PE,1578442691,-17.17,-71.79,19.870000000000005,293.02,293.02,1016,88,56,5.10036,67.76600000000002
373,Carrollton,US,1578442691,33.58,-85.08,8.890000000000043,280.37,284.15,1025,42,1,5.8162,51.8
374,Bodden Town,KY,1578442691,19.28,-81.25,25.370000000000005,297.59,299.15,1018,69,20,11.4087,78.80000000000001
375,Letlhakane,BW,1578442692,-21.42,25.59,23.57000000000005,296.72,296.72,1009,69,42,4.004230000000001,74.4260000000001
376,Pangoa,PE,1578442692,-12.12,-73.0,22.07000000000005,295.22,295.22,1009,97,95,1.65538,71.72600000000008
377,Nantong,CN,1578442579,31.98,120.89,3.890000000000043,276.48,277.59,1025,87,2,1.99093,39.992
378,Broome,GB,1578442692,52.47,1.45,12.879999999999995,284.82,287.15,1015,82,100,20.804100000000002,57.2
379,Whitefish,US,1578442692,48.41,-114.33,2.920000000000016,274.26,277.59,1011,86,90,6.9347,39.992
380,Rocha,UY,1578442692,-34.48,-54.34,16.420000000000016,289.57,289.57,1009,52,0,4.63059,61.556000000000026
381,Magan,OM,1578442692,24.42,56.58,16.0,289.15,289.15,1017,72,0,3.3555,60.8
382,Edeia,BR,1578442692,-17.34,-49.93,23.379999999999995,296.53,296.53,1011,92,95,7.292619999999999,74.084
383,Taoudenni,ML,1578442693,22.68,-3.98,13.57000000000005,286.72,286.72,1018,18,0,13.60096,56.42600000000009
384,Paarl,ZA,1578442693,-33.74,18.98,19.370000000000005,292.04,293.15,1006,100,75,5.8162,68.0
385,Lubango,AO,1578442693,-14.92,13.49,14.210000000000036,287.36,287.36,1012,86,87,6.08464,57.57800000000007
386,Dekar,BW,1578442693,-21.53,21.93,22.560000000000002,295.71,295.71,1009,75,100,4.80955,72.608
387,Itarema,BR,1578442406,-2.92,-39.92,25.08000000000004,298.23,298.23,1012,86,89,3.75816,77.14400000000008
388,Bilma,NE,1578442693,18.69,12.92,12.490000000000009,285.64,285.64,1018,34,36,10.871820000000001,54.48200000000001
389,Omaruru,NA,1578442693,-21.42,15.95,21.02000000000004,294.17,294.17,1011,39,5,1.23035,69.83600000000007
390,Cockburn Town,TC,1578442420,21.46,-71.14,25.689999999999998,298.84,298.84,1018,80,16,14.697090000000001,78.24199999999999
391,Collie,AU,1578442694,-33.36,116.15,20.560000000000002,293.71,293.71,1008,56,0,8.008460000000001,69.00800000000001
392,Balezino,RU,1578442694,57.97,53.01,-12.949999999999989,260.2,260.2,1029,97,99,3.66868,8.690000000000019
393,Zhumadian,CN,1578442694,33.01,114.02,0.6899999999999977,273.84,273.84,1030,85,95,3.93712,33.242
394,Honjo,JP,1578442694,39.38,140.05,3.6299999999999955,275.15,278.15,1004,100,75,12.750900000000001,41.0
395,Lynn Haven,US,1578442694,30.25,-85.65,12.990000000000009,283.15,289.15,1025,53,1,4.6977,60.8
396,Grenfell,AU,1578442694,-33.9,148.16,31.600000000000023,304.75,304.75,1012,38,46,10.17835,88.88000000000005
397,Zatoka,PL,1578442694,50.04,20.52,1.1000000000000227,273.15,275.37,1029,80,90,2.237,35.99600000000005
398,Kibungo,RW,1578442695,-2.14,30.55,14.879999999999995,288.03,288.03,1014,94,60,2.16989,58.78399999999999
399,Banda Aceh,ID,1578442489,5.56,95.32,21.74000000000001,294.89,294.89,1010,88,80,6.0399,71.13200000000002
400,Martapura,ID,1578442695,-3.41,114.85,25.28000000000003,298.43,298.43,1010,86,100,0.82769,77.50400000000005
401,Okoneshnikovo,RU,1578442695,54.84,75.08,-12.729999999999961,260.42,260.42,1030,97,100,4.36215,9.08600000000007
402,Toamasina,MG,1578442506,-18.17,49.38,26.08000000000004,299.23,299.23,1012,82,100,6.643890000000001,78.94400000000007
403,Watertown,US,1578442546,44.9,-97.12,-12.919999999999959,259.26,262.04,1022,71,1,9.1717,12.002000000000077
404,Carnot,CF,1578442695,4.94,15.87,22.03000000000003,295.18,295.18,1011,36,18,4.45163,71.65400000000005
405,Rock Sound,BS,1578442606,24.9,-76.2,22.689999999999998,295.84,295.84,1021,66,96,9.44014,72.842
406,Shubarshi,KZ,1578442696,48.59,57.19,-11.389999999999986,261.76,261.76,1032,95,89,3.84764,11.498000000000022
407,Itoman,JP,1578442696,26.12,127.67,20.32000000000005,292.15,294.82,1020,88,75,25.278100000000002,71.00600000000003
408,Turayf,SA,1578442696,31.68,38.65,4.0,277.15,277.15,1014,93,20,10.2902,39.2
409,Ardrossan,AU,1578442696,-34.42,137.92,23.57000000000005,296.72,296.72,1014,56,0,3.78053,74.4260000000001
410,Sangar,RU,1578442696,63.92,127.47,-25.359999999999985,247.79,247.79,1014,96,81,2.97521,-13.647999999999975
411,Bintulu,MY,1578442696,3.17,113.03,24.150000000000034,297.04,298.15,1010,100,75,1.23035,77.0
412,Armizonskoye,RU,1578442696,55.95,67.67,-14.17999999999995,258.97,258.97,1031,95,80,3.66868,6.476000000000088
413,Bonnyville,CA,1578442696,54.27,-110.74,-19.99999999999997,253.15,253.15,1020,58,75,8.0532,-3.9999999999999503
414,Pingliang,CN,1578442696,35.54,106.68,-6.199999999999989,266.95,266.95,1026,80,100,3.91475,20.840000000000018
415,Horta,BR,1578442697,-10.93,-37.66,27.0,300.15,300.15,1012,69,20,12.750900000000001,80.6
416,Saint-Pierre,FR,1578442697,48.95,4.24,7.03000000000003,278.71,281.15,1028,100,90,11.4087,46.4
417,Grand Gaube,MU,1578442697,-20.01,57.66,24.710000000000036,297.59,298.15,1011,94,75,3.22128,77.0
418,Kinablangan,PH,1578442697,7.69,126.55,24.110000000000014,297.26,297.26,1012,84,97,5.033250000000001,75.39800000000002
419,Haicheng,CN,1578442697,40.85,122.74,-10.299999999999955,262.85,262.85,1024,82,100,14.65235,13.460000000000083
420,Springfield,US,1578442105,42.1,-72.59,0.4500000000000455,271.48,275.93,1013,83,90,3.3555,37.004000000000055
421,Okha,RU,1578442697,53.59,142.95,-12.669999999999959,260.48,260.48,1012,93,100,10.2902,9.194000000000074
422,Vestmannaeyjar,IS,1578442697,63.44,-20.27,-0.20999999999997954,272.94,272.94,964,62,100,49.214,31.622000000000035
423,Kavaratti,IN,1578442698,10.57,72.64,27.74000000000001,300.89,300.89,1011,73,36,11.833730000000001,81.93200000000002
424,Pontianak,ID,1578442698,-0.02,109.34,24.82000000000005,297.97,297.97,1009,92,100,1.09613,76.6760000000001
425,Robertsport,LR,1578442698,6.75,-11.37,27.379999999999995,300.53,300.53,1011,73,23,11.49818,81.28399999999999
426,Abha,SA,1578442698,18.22,42.5,14.0,287.15,287.15,1025,87,40,14.987900000000002,57.2
427,Puerto Lumbreras,ES,1578442698,37.56,-1.81,3.6100000000000136,273.15,279.82,1029,68,0,2.99758,44.00600000000003
428,Iwanai,JP,1578442699,42.97,140.51,-2.5,270.65,270.65,1013,76,100,6.39782,27.5
429,Sa Kaeo,TH,1578442699,13.8,102.09,22.120000000000005,295.27,295.27,1014,56,78,3.26602,71.816
430,Nara,JP,1578442699,34.68,135.8,12.330000000000041,282.59,287.15,1005,93,75,1.1185,57.2
431,Suruc,TR,1578442699,36.98,38.42,6.0,279.15,279.15,1014,87,75,20.804100000000002,42.8
432,Miramar,CR,1578442699,10.09,-84.73,21.140000000000043,293.15,296.15,1017,53,31,17.2249,73.4
433,Pedro Juan Caballero,PY,1578442699,-22.55,-55.74,20.680000000000007,293.83,293.83,1007,92,100,4.07134,69.22400000000002
434,Trelleborg,SE,1578442699,55.38,13.15,5.600000000000023,278.15,279.26,1016,93,90,21.922600000000003,42.998000000000026
435,Muros,ES,1578442700,42.77,-9.06,10.310000000000002,280.15,286.48,1032,100,75,1.1185,55.99400000000007
436,Biritiba-Mirim,BR,1578442700,-23.57,-46.04,23.430000000000007,293.15,301.15,1013,83,75,2.237,82.4
437,Guozhen,CN,1578442700,29.3,113.14,3.82000000000005,276.97,276.97,1028,79,0,11.11789,38.87600000000009
438,Koping,SE,1578442700,59.51,15.99,6.32000000000005,278.15,280.37,1004,70,100,19.4619,44.99600000000005
439,Peniche,PT,1578442700,39.36,-9.38,6.75,275.37,282.59,1031,87,0,9.1717,48.992
440,Russell,US,1578442521,38.9,-98.86,8.129999999999995,279.15,284.15,1022,39,1,3.3555,51.8
441,Asheboro,US,1578442681,35.71,-79.81,4.32000000000005,275.37,280.15,1020,68,1,9.21644,44.6
442,Bubaque,GW,1578442664,11.28,-15.83,25.010000000000048,298.16,298.16,1012,45,50,16.195880000000002,77.01800000000009
443,La Ronge,CA,1578442700,55.1,-105.3,-24.99999999999997,248.15,248.15,1025,69,5,1.74486,-12.99999999999995
444,Shelton,US,1578442696,41.32,-73.09,2.3700000000000045,273.71,277.59,1013,60,90,9.1717,39.992
445,Thinadhoo,MV,1578442644,0.53,72.93,28.24000000000001,301.39,301.39,1009,78,65,13.668070000000002,82.83200000000002
446,Shu,KZ,1578442701,43.6,73.76,-0.5600000000000023,272.59,272.59,1011,74,100,1.00665,30.991999999999997
447,Kalmunai,LK,1578442701,7.42,81.82,27.090000000000032,300.24,300.24,1010,79,90,20.71462,80.76200000000006
448,Suntar,RU,1578442443,62.16,117.65,-8.789999999999964,264.36,264.36,1015,94,100,6.73337,16.178000000000065
449,Praia,BR,1578442701,-20.25,-43.81,25.360000000000014,297.15,300.15,1015,65,40,4.6977,80.6
450,Tuatapere,NZ,1578442701,-46.13,167.69,15.680000000000007,288.83,288.83,1015,50,100,3.5792,60.22400000000002
451,Kirksville,US,1578442702,40.19,-92.58,3.480000000000018,275.37,278.15,1020,64,1,4.6977,41.0
452,Sangin,AF,1578442702,32.07,64.85,2.9399999999999977,276.09,276.09,1023,57,0,5.18984,37.291999999999994
453,Buin,CL,1578442702,-33.73,-70.74,22.340000000000032,295.15,296.15,1014,40,26,4.6977,73.4
454,Gamba,CN,1578442702,28.28,88.52,-13.489999999999952,259.66,259.66,1018,75,0,2.77388,7.718000000000085
455,Diego de Almagro,CL,1578442473,-26.39,-70.05,19.480000000000018,292.63,292.63,1017,41,0,5.92805,67.06400000000004
456,Linjiang,CN,1578442702,41.81,126.91,-10.42999999999995,262.72,262.72,1018,93,100,3.42261,13.226000000000088
457,Erdenet,MN,1578442458,49.03,104.04,-21.889999999999986,251.26,251.26,1037,77,0,2.37122,-7.40199999999998
458,Bull Savanna,JM,1578442702,17.89,-77.59,20.730000000000018,293.88,293.88,1017,94,55,3.10943,69.31400000000004
459,Aswan,EG,1578442702,24.09,32.9,9.25,282.4,282.4,1020,54,0,11.09552,48.650000000000006
460,Yanam,IN,1578442703,16.73,82.22,18.420000000000016,291.57,291.57,1014,93,19,2.63966,65.15600000000003
461,Hambantota,LK,1578442703,6.12,81.12,26.620000000000005,299.77,299.77,1010,79,82,21.4752,79.91600000000001
462,Ardee,IE,1578442703,53.86,-6.54,10.439999999999998,283.15,284.15,1011,76,75,24.1596,51.8
463,Tucurui,BR,1578442417,-3.77,-49.67,24.210000000000036,297.36,297.36,1011,90,90,2.79625,75.57800000000006
464,Homer,US,1578442703,59.64,-151.54,-13.939999999999998,256.48,263.15,1014,60,1,4.6977,14.0
465,Sao Felix do Xingu,BR,1578442703,-6.64,-51.99,23.27000000000004,296.42,296.42,1011,91,9,2.12515,73.88600000000008
466,Atambua,ID,1578442703,-9.11,124.89,27.910000000000025,301.06,301.06,1008,68,64,0.8948,82.23800000000006
467,Teshie,GH,1578442703,5.58,-0.11,26.610000000000014,299.76,299.76,1010,80,0,13.55622,79.89800000000002
468,Nelson Bay,AU,1578442704,-32.72,152.14,24.960000000000036,296.48,300.93,1015,78,75,18.3434,82.00400000000005
469,Goure,NE,1578442704,13.98,10.27,18.33000000000004,291.48,291.48,1015,22,76,8.99274,64.99400000000009
470,Mitsamiouli,KM,1578442704,-11.38,43.28,28.200000000000045,301.35,301.35,1010,72,36,1.8119700000000003,82.76000000000008
471,Khasan,RU,1578442704,42.43,130.64,-2.7199999999999704,270.43,270.43,1014,96,100,6.174119999999999,27.104000000000052
472,Luderitz,NA,1578442704,-26.65,15.16,17.0,290.15,290.15,1010,93,74,6.9347,62.6
473,Jardim,BR,1578442704,-21.48,-56.15,23.58000000000004,296.73,296.73,1007,97,100,4.54111,74.44400000000007
474,Lichuan,CN,1578442704,30.3,108.94,3.090000000000032,276.24,276.24,1022,93,100,5.74909,37.562000000000054
475,Amos,CA,1578442704,48.57,-78.12,-2.589999999999975,270.15,271.15,1002,92,90,5.8162,28.4
476,Tabas,IR,1578442705,33.6,56.92,2.0,275.15,275.15,1022,47,0,4.6977,35.6
477,Victor Harbor,AU,1578442705,-35.55,138.62,26.970000000000027,297.59,302.04,1015,41,37,8.0532,84.00200000000008
478,Avera,US,1578442705,33.19,-82.53,11.020000000000039,281.15,287.15,1022,37,1,5.8162,57.2
479,Opuwo,NA,1578442705,-18.06,13.84,19.850000000000023,293.0,293.0,1011,61,11,8.5006,67.73000000000005
480,Biscarrosse,FR,1578442705,44.41,-1.18,10.050000000000011,282.15,284.15,1031,100,96,2.237,51.8
481,Bialystok,PL,1578442680,53.13,23.15,-1.1999999999999886,270.37,273.71,1030,92,0,6.711,33.008
482,Pangnirtung,CA,1578442413,66.15,-65.72,-34.99999999999997,238.15,238.15,996,43,20,3.3555,-30.99999999999995
483,Egvekinot,RU,1578442706,66.32,-179.17,-27.869999999999976,245.28,245.28,1022,65,0,3.33313,-18.16599999999996
484,Kastamonu,TR,1578442706,41.38,33.78,2.930000000000007,276.08,276.08,1016,97,100,4.183190000000001,37.274000000000015
485,Lamar,US,1578442706,38.09,-102.62,14.0,287.15,287.15,1021,17,1,8.0532,57.2
486,Garissa,KE,1578442706,-0.46,39.64,24.370000000000005,297.52,297.52,1011,87,100,5.27932,75.86600000000001
487,Varkaus,FI,1578442566,62.32,27.87,2.3000000000000114,274.82,276.15,1007,93,90,11.4087,37.4
488,Riberalta,BO,1578442706,-11.0,-66.08,26.0,299.15,299.15,1007,88,75,2.08041,78.80000000000001
489,Sur,OM,1578442707,22.57,59.53,19.75,292.9,292.9,1017,53,0,11.8561,67.55000000000001
490,Forbes,AU,1578442708,-33.38,148.01,35.0,308.15,308.15,1014,28,30,1.00665,95.0
491,Quelimane,MZ,1578442708,-17.88,36.89,26.210000000000036,299.36,299.36,1009,87,67,3.95949,79.17800000000007
492,Azacualpa,HN,1578442708,15.34,-88.55,22.420000000000016,294.15,297.15,1020,100,90,0.96191,75.2
493,Leh,IN,1578442708,34.16,77.58,-16.289999999999964,256.86,256.86,1019,95,93,4.67533,2.6780000000000648
494,Salalah,OM,1578442708,17.01,54.1,24.0,297.15,297.15,1015,53,0,11.4087,75.2
495,Chirongui,YT,1578442708,-12.93,45.15,27.0,300.15,300.15,1011,88,61,3.3555,80.6
496,Qaqortoq,GL,1578442709,60.72,-46.03,-12.0,261.15,261.15,990,78,100,2.237,10.399999999999999
497,West Odessa,US,1578442709,31.84,-102.48,13.54000000000002,284.15,290.15,1026,11,1,10.2902,62.6
498,Pelotas,BR,1578442709,-31.77,-52.34,21.670000000000016,294.82,294.82,1010,62,0,1.00665,71.00600000000003
499,Coihaique,CL,1578442709,-45.58,-72.07,7.0,280.15,280.15,995,87,90,4.6977,44.6
500,Mirwah,YE,1578442709,13.92,43.92,16.420000000000016,289.57,289.57,1016,93,66,1.02902,61.556000000000026
501,Sungaipenuh,ID,1578442709,-2.08,101.38,17.730000000000018,290.88,290.88,1011,96,98,2.81862,63.91400000000003
502,Trat,TH,1578442709,12.25,102.51,27.160000000000025,297.15,303.15,1012,94,100,6.509670000000001,86.0
503,Caraballeda,VE,1578442709,10.61,-66.85,23.890000000000043,295.37,299.15,1013,88,40,4.6977,78.80000000000001
504,Belomorsk,RU,1578442709,64.52,34.76,2.5500000000000114,275.7,275.7,1003,91,100,12.661420000000001,36.59000000000002
505,Siguiri,GN,1578442710,11.42,-9.17,20.760000000000048,293.91,293.91,1012,20,39,3.89238,69.36800000000008
506,Cabudare,VE,1578442710,10.02,-69.27,22.32000000000005,295.47,295.47,1013,58,1,7.292619999999999,72.1760000000001
507,Bairnsdale,AU,1578442710,-37.83,147.63,19.53000000000003,292.04,293.71,1017,85,100,3.51209,69.00800000000001
508,Orumiyeh,IR,1578442710,37.55,45.08,-2.0,271.15,271.15,1019,79,90,4.6977,28.4
509,Deer Lake,CA,1578442710,49.18,-57.43,-9.20999999999998,263.71,264.15,1014,85,90,3.3555,15.8
510,Marquette,US,1578442710,46.54,-87.4,-7.96999999999997,264.26,265.93,1009,67,90,9.1717,19.004000000000055
511,Anaconda,US,1578442711,46.13,-112.94,3.6100000000000136,275.93,278.15,1013,56,90,6.9347,41.0
512,Miguel Auza,MX,1578442711,24.29,-103.45,13.390000000000043,286.54,286.54,1021,36,0,9.41777,56.102000000000075
513,Bambari,CF,1578442711,5.77,20.68,23.27000000000004,296.42,296.42,1009,38,44,3.10943,73.88600000000008
514,Vao,EE,1578442711,59.1,26.19,3.3799999999999955,276.53,276.53,1016,81,100,12.77327,38.08399999999999
515,Balkanabat,TM,1578442711,39.51,54.36,4.390000000000043,277.54,277.54,1020,54,11,15.994550000000002,39.90200000000008
516,Mishan,CN,1578442711,45.55,131.88,-14.049999999999955,259.1,259.1,1019,94,99,6.80048,6.710000000000083
517,Padang,ID,1578442712,-0.92,100.36,20.74000000000001,293.89,293.89,1010,86,98,6.15175,69.33200000000002
518,Keetmanshoop,NA,1578442712,-26.57,18.15,23.0,296.15,296.15,1012,46,23,1.1185,73.4
519,Nagaur,IN,1578442712,27.2,73.74,12.29000000000002,285.44,285.44,1014,83,4,7.13603,54.12200000000004
520,Colomi,BO,1578442712,-17.34,-65.87,20.0,293.15,293.15,1020,56,75,11.4087,68.0
521,Buenos Aires,AR,1578442608,-34.61,-58.44,25.120000000000005,296.48,300.37,1007,50,0,12.750900000000001,80.99600000000005
522,Igaci,BR,1578442712,-9.54,-36.64,22.660000000000025,295.81,295.81,1013,78,14,7.672910000000001,72.78800000000004
523,Rawlins,US,1578442712,41.79,-107.24,-2.0,271.15,271.15,1022,63,1,14.987900000000002,28.4
524,Ribnitz-Damgarten,DE,1578442713,54.24,12.43,6.420000000000016,279.15,280.37,1021,81,75,10.2902,44.99600000000005
525,Shimoda,JP,1578442713,34.7,138.93,11.710000000000036,283.71,286.15,1003,100,75,10.2902,55.400000000000006
526,Kerrville,US,1578442713,30.05,-99.14,13.640000000000043,285.93,288.15,1028,10,1,7.85187,59.0
527,Albury,AU,1578442661,-36.08,146.92,27.80000000000001,299.82,302.59,1014,44,8,6.9347,84.99199999999999
528,Riyadh,SA,1578442713,24.63,46.72,10.0,283.15,283.15,1019,66,0,5.8162,50.0
529,Uray,RU,1578442713,60.13,64.8,-17.69999999999999,255.45,255.45,1026,94,51,5.301690000000001,0.14000000000001833
530,Tigzirt,DZ,1578442713,36.57,4.2,3.7600000000000477,276.91,276.91,1029,92,0,0.24607,38.768000000000086
531,Aripuana,BR,1578442714,-9.17,-60.63,24.82000000000005,297.97,297.97,1009,92,24,0.17896,76.6760000000001
532,Lanzhou,CN,1578442714,36.06,103.82,-7.0,262.15,270.93,1017,92,100,2.237,28.004000000000055
533,Cairns,AU,1578442490,-16.92,145.77,28.5,299.82,303.15,1011,79,75,12.750900000000001,86.0
534,Mukdahan,TH,1578442714,16.54,104.73,19.0,292.15,292.15,1016,88,40,2.237,66.2
535,San Policarpo,PH,1578442714,12.18,125.51,26.610000000000014,299.76,299.76,1013,83,100,11.99032,79.89800000000002
536,Rome,IT,1578442062,41.89,12.48,4.4500000000000455,275.37,280.15,1024,71,40,4.6977,44.6
537,Northam,AU,1578442714,-31.65,116.67,22.54000000000002,295.37,296.15,1008,56,0,10.2902,73.4
538,Namibe,AO,1578442715,-15.19,12.15,23.08000000000004,296.23,296.23,1011,80,100,2.75151,73.54400000000007
539,Menongue,AO,1578442715,-14.66,17.68,18.02000000000004,291.17,291.17,1013,91,92,5.167470000000001,64.43600000000006
540,Coffs Harbour,AU,1578442715,-30.3,153.13,30.600000000000023,301.15,305.37,1014,61,1,17.2249,89.99600000000005
541,Bambanglipuro,ID,1578442715,-7.95,110.28,25.0,298.15,298.15,1009,86,79,2.79625,77.0
542,Guiratinga,BR,1578442715,-16.35,-53.76,24.08000000000004,297.23,297.23,1011,87,62,1.67775,75.34400000000008
543,Jacareacanga,BR,1578442715,-6.22,-57.76,24.470000000000027,297.62,297.62,1010,92,96,1.63301,76.04600000000005
544,Behbahan,IR,1578442715,30.59,50.24,4.0,277.15,277.15,1020,86,0,1.47642,39.2
545,Klaksvik,FO,1578442716,62.23,-6.59,3.0,276.15,276.15,977,64,96,38.029,37.4
546,Boshnyakovo,RU,1578442716,49.65,142.17,-9.17999999999995,263.97,263.97,1014,78,0,3.66868,15.476000000000088
547,Teguise,ES,1578442716,29.06,-13.56,16.0,289.15,289.15,1027,77,20,11.4087,60.8
548,Xam Nua,LA,1578442716,20.42,104.04,12.710000000000036,285.86,285.86,1017,99,6,2.93047,54.87800000000007
549,Kikwit,CD,1578442716,-5.04,18.82,22.07000000000005,295.22,295.22,1011,94,100,1.40931,71.72600000000008
550,Vostok,RU,1578442716,46.45,135.83,-12.259999999999991,260.89,260.89,1018,76,96,1.96856,9.932000000000016
