,City,Country,Date,Latitude,Longitude,Temp,Temp Min,Temp Max,Pressure,Humidity,Clouds,Wind Speed,Max F
0,Basudebpur,IN,1578440030,21.14,86.74,16.100000000000023,289.25,289.25,1014,69,29,4.67533,60.98000000000005
1,Codrington,AU,1578440030,-28.95,153.24,28.560000000000002,301.15,302.59,1015,48,35,4.6977,84.99199999999999
2,Saint Anthony,US,1578440030,43.97,-111.68,-0.38999999999998636,271.15,275.15,1020,80,90,4.6977,35.6
3,Urdoma,RU,1578440030,61.74,48.55,-7.92999999999995,265.22,265.22,1020,93,98,8.25453,17.72600000000009
4,Busselton,AU,1578440030,-33.64,115.35,21.430000000000007,292.04,298.15,1002,36,27,6.73337,77.0
5,Mataura,NZ,1578439775,-46.19,168.86,15.560000000000002,288.71,288.71,1017,66,95,7.00181,60.00800000000001
6,Longyearbyen,NO,1578440031,78.22,15.63,-1.0,272.15,272.15,979,63,40,34.4498,30.2
7,Butaritari,KI,1578440031,3.07,172.79,29.189999999999998,302.34,302.34,1007,79,52,17.694670000000002,84.542
8,Taoudenni,ML,1578439828,22.68,-3.98,13.57000000000005,286.72,286.72,1018,18,0,13.60096,56.42600000000009
9,Cabo San Lucas,MX,1578439828,22.89,-109.91,23.930000000000007,294.82,299.26,1016,69,5,11.4087,78.99800000000002
10,Fortuna,US,1578440031,40.6,-124.16,9.600000000000023,279.82,284.26,1019,87,90,3.3555,51.998000000000026
11,Birecik,TR,1578440031,37.03,37.98,5.390000000000043,278.15,279.15,1012,100,90,8.0532,42.8
12,Katangli,RU,1578440032,51.71,143.23,-11.310000000000002,261.84,261.84,1014,88,91,7.09129,11.641999999999996
13,Lagos,NG,1578439905,6.46,3.39,26.0,299.15,299.15,1012,78,30,2.237,78.80000000000001
14,Hithadhoo,MV,1578439775,-0.6,73.08,28.510000000000048,301.66,301.66,1009,76,98,11.09552,83.3180000000001
15,Ternate,PH,1578440032,14.29,120.72,25.0,298.15,298.15,1013,88,20,2.237,77.0
16,Srivardhan,IN,1578440032,18.03,73.02,22.610000000000014,295.76,295.76,1012,83,37,7.06892,72.69800000000004
17,Albany,US,1578440032,42.65,-73.75,-0.7099999999999795,270.93,274.26,1012,58,75,3.69105,33.998000000000026
18,Port Alfred,ZA,1578440032,-33.59,26.89,20.0,293.15,293.15,1009,98,100,1.99093,68.0
19,Bilma,NE,1578440032,18.69,12.92,12.490000000000009,285.64,285.64,1018,34,36,10.871820000000001,54.48200000000001
20,Ribeira Grande,PT,1578440032,38.52,-28.7,15.970000000000027,289.12,289.12,1028,91,20,15.56952,60.74600000000005
21,Coihaique,CL,1578440033,-45.58,-72.07,8.0,281.15,281.15,994,81,90,4.6977,46.4
22,Mahebourg,MU,1578440033,-20.41,57.7,25.410000000000025,298.15,299.15,1012,88,75,2.93047,78.80000000000001
23,Bubaque,GW,1578440033,11.28,-15.83,25.010000000000048,298.16,298.16,1012,45,50,16.195880000000002,77.01800000000009
24,Santiago de Chuco,PE,1578440033,-8.15,-78.17,8.180000000000007,281.33,281.33,1014,91,53,5.97279,46.72400000000001
25,Carnarvon,ZA,1578440033,-30.97,22.13,18.980000000000018,292.13,292.13,1009,81,100,12.70616,66.16400000000004
26,New Norfolk,AU,1578439781,-42.78,147.06,21.32000000000005,292.59,297.59,1020,52,20,5.8162,75.99199999999999
27,Bluff,AU,1578440034,-23.58,149.07,27.710000000000036,300.86,300.86,1014,53,57,10.75997,81.87800000000007
28,Orizona,BR,1578440034,-17.03,-48.3,21.160000000000025,294.31,294.31,1012,94,100,2.5054400000000006,70.08800000000005
29,Keflavik,IS,1578440035,64.0,-22.56,-2.4599999999999795,270.15,271.15,961,63,75,46.08220000000001,28.4
30,Tigil,RU,1578439805,57.8,158.67,-13.279999999999973,259.87,259.87,1007,73,97,2.9081,8.09600000000005
31,Atuona,PF,1578440035,-9.8,-139.03,27.160000000000025,300.31,300.31,1011,78,9,14.27206,80.88800000000005
32,Tilichiki,RU,1578440035,60.47,166.1,-16.319999999999993,256.83,256.83,1013,91,100,8.29927,2.624000000000013
33,Panormos,GR,1578440035,38.37,22.25,2.8000000000000114,272.59,278.71,1021,65,0,5.97279,42.008
34,Vaini,IN,1578440035,15.34,74.49,17.58000000000004,290.73,290.73,1012,87,1,2.59492,63.64400000000008
35,Georgetown,GY,1578440036,6.8,-58.16,26.470000000000027,299.15,300.15,1013,83,75,6.9347,80.6
36,Hamilton,CA,1578440036,43.26,-79.87,1.660000000000025,273.15,276.48,1010,87,90,9.1717,37.99400000000007
37,Lavrentiya,RU,1578440036,65.58,-170.99,-24.69999999999999,248.45,248.45,1024,93,37,2.237,-12.45999999999998
38,Hilo,US,1578439782,19.71,-155.08,22.260000000000048,285.37,303.15,1020,48,75,16.1064,86.0
39,Paamiut,GL,1578440036,61.99,-49.67,-9.669999999999959,263.48,263.48,991,76,100,10.334940000000001,14.594000000000072
40,Namibe,AO,1578440036,-15.19,12.15,23.08000000000004,296.23,296.23,1011,80,100,2.75151,73.54400000000007
41,Hermanus,ZA,1578440036,-34.42,19.24,18.950000000000045,291.48,292.59,1001,93,0,8.008460000000001,66.99199999999999
42,Faanui,PF,1578440036,-16.48,-151.75,27.870000000000005,301.02,301.02,1011,80,13,18.32103,82.16600000000001
43,Klaksvik,FO,1578440037,62.23,-6.59,3.0,276.15,276.15,976,69,96,28.857300000000002,37.4
44,Teguise,ES,1578440037,29.06,-13.56,17.0,290.15,290.15,1027,72,20,12.750900000000001,62.6
45,Cape Town,ZA,1578439802,-33.93,18.42,19.879999999999995,292.59,293.15,1006,94,20,3.3555,68.0
46,Isangel,VU,1578440037,-19.55,169.27,28.0,301.15,301.15,1012,65,75,11.4087,82.4
47,Ushuaia,AR,1578440037,-54.81,-68.31,10.450000000000045,283.15,284.15,980,87,75,5.8162,51.8
48,Bredasdorp,ZA,1578439774,-34.53,20.04,19.310000000000002,292.04,293.15,1006,88,0,3.3555,68.0
49,High Level,CA,1578440037,58.52,-117.13,-25.99999999999997,247.15,247.15,1020,75,90,3.53446,-14.799999999999947
50,Tasiilaq,GL,1578440037,65.61,-37.64,-13.599999999999966,259.55,259.55,968,45,100,28.074350000000003,7.52000000000006
51,East London,ZA,1578439775,-33.02,27.91,23.730000000000018,296.88,296.88,1011,88,100,17.06831,74.71400000000003
52,Carballo,ES,1578440038,43.21,-8.69,11.060000000000002,281.15,286.48,1031,93,90,5.8162,55.99400000000007
53,Poum,MK,1578440038,41.28,20.71,-3.159999999999968,269.99,269.99,1028,34,0,4.42926,26.312000000000058
54,Jamestown,AU,1578439776,-33.21,138.6,27.58000000000004,300.73,300.73,1014,22,0,14.540500000000002,81.64400000000008
55,Bambous Virieux,MU,1578440038,-20.34,57.76,25.420000000000016,298.15,299.15,1012,88,75,5.61487,78.80000000000001
56,Kaitangata,NZ,1578440038,-46.28,169.85,15.560000000000002,288.71,288.71,1014,58,76,5.010880000000001,60.00800000000001
57,Rikitea,PF,1578440038,-23.12,-134.97,25.370000000000005,298.52,298.52,1017,77,11,18.85791,77.66600000000001
58,Hobart,AU,1578439996,-42.88,147.33,21.450000000000045,292.59,297.59,1020,52,20,5.8162,75.99199999999999
59,Pevek,RU,1578440039,69.7,170.27,-23.079999999999984,250.07,250.07,1014,76,0,13.489110000000002,-9.543999999999976
60,Yellowknife,CA,1578440039,62.45,-114.38,-34.329999999999984,238.15,239.26,1024,73,40,3.3555,-29.001999999999974
61,Bontang,ID,1578440039,0.12,117.47,26.600000000000023,299.75,299.75,1010,82,100,11.27448,79.88000000000005
62,Andria,IT,1578440039,41.23,16.29,5.110000000000014,278.15,278.71,1025,86,100,6.9347,42.008
63,Jardim,BR,1578440039,-21.48,-56.15,23.58000000000004,296.73,296.73,1007,97,100,4.54111,74.44400000000007
64,Kiunga,PG,1578440040,-6.12,141.3,23.27000000000004,296.42,296.42,1011,99,100,2.34885,73.88600000000008
65,Haines Junction,CA,1578440040,60.75,-137.51,-21.98999999999998,251.16,251.16,1014,98,100,4.98851,-7.581999999999965
66,Zyryanka,RU,1578440040,65.73,150.89,-30.879999999999967,242.27,242.27,1012,78,19,5.77146,-23.58399999999994
67,Punta Arenas,CL,1578440040,-53.16,-70.91,14.0,287.15,287.15,980,47,92,12.750900000000001,57.2
68,Bonavista,CA,1578440009,48.65,-53.11,-5.560000000000002,267.59,267.59,1016,83,90,9.48488,21.991999999999997
69,Lompoc,US,1578440040,34.64,-120.46,16.57000000000005,287.04,293.15,1019,48,1,14.987900000000002,68.0
70,Makakilo City,US,1578439890,21.35,-158.09,26.450000000000045,297.15,301.15,1020,64,75,19.4619,82.4
71,Tereze,RU,1578440041,43.94,42.44,-2.17999999999995,270.93,271.15,1018,100,90,4.474,28.4
72,Kununurra,AU,1578440041,-15.77,128.74,28.0,301.15,301.15,1007,78,40,3.3555,82.4
73,Mabaruma,GY,1578440041,8.2,-59.78,22.560000000000002,295.71,295.71,1014,98,40,2.34885,72.608
74,Kapaa,US,1578440041,22.08,-159.32,26.33000000000004,297.04,301.15,1021,61,40,23.041100000000004,82.4
75,Ponta do Sol,BR,1578439791,-20.63,-46.0,21.430000000000007,294.58,294.58,1012,93,99,5.10036,70.57400000000001
76,Bulawayo,ZW,1578440041,-20.16,28.59,19.939999999999998,293.09,293.09,1011,79,100,2.66203,67.892
77,Geraldton,CA,1578439779,49.72,-86.95,-15.0,258.15,258.15,1007,71,75,8.0532,5.0
78,Laguna,BZ,1578440042,16.17,-88.94,22.0,295.15,295.15,1019,94,90,1.65538,71.6
79,Thompson,CA,1578440042,55.74,-97.86,-24.99999999999997,248.15,248.15,1022,75,75,5.8162,-12.99999999999995
80,Saint-Philippe,CA,1578439769,45.36,-73.48,-4.0,267.15,271.15,1014,73,90,3.3555,28.4
81,Chuy,UY,1578439812,-33.69,-53.46,18.870000000000005,292.02,292.02,1011,61,0,7.91898,65.96600000000001
82,Severo-Kurilsk,RU,1578439804,50.68,156.12,-5.7999999999999545,267.35,267.35,1006,90,59,13.15356,21.56000000000008
83,Sitka,US,1578440042,37.17,-99.65,9.170000000000016,282.32,282.32,1023,31,0,5.99516,48.50600000000003
84,Kruisfontein,ZA,1578440042,-34.0,24.73,18.74000000000001,291.89,291.89,1008,95,99,5.525390000000001,65.73200000000003
85,Ilulissat,GL,1578440042,69.22,-51.1,-18.99999999999997,254.15,254.15,982,49,40,13.8694,-2.199999999999953
86,Kavieng,PG,1578440043,-2.57,150.8,28.5,301.65,301.65,1007,79,77,14.47339,83.30000000000001
87,Tuktoyaktuk,CA,1578439779,69.44,-133.03,-35.99999999999997,237.15,237.15,1026,66,40,11.4087,-32.799999999999955
88,Barrow,AR,1578440043,-38.31,-60.23,19.730000000000018,292.88,292.88,1002,44,0,9.8428,67.51400000000004
89,Gravelbourg,CA,1578440043,49.88,-106.56,-17.17999999999998,255.97,255.97,1028,87,83,7.42684,1.0760000000000396
90,Sambava,MG,1578440043,-14.27,50.17,22.510000000000048,295.66,295.66,1012,97,71,1.74486,72.51800000000009
91,Kifri,IQ,1578440043,34.69,44.96,11.04000000000002,284.19,284.19,1018,45,0,8.097940000000001,51.87200000000004
92,Cidreira,BR,1578440043,-30.17,-50.22,23.920000000000016,297.07,297.07,1010,72,2,11.140260000000001,75.05600000000004
93,Baghdad,IQ,1578440043,33.3,44.38,13.0,286.15,286.15,1017,58,0,10.2902,55.400000000000006
94,Voi,KE,1578440043,-3.4,38.57,20.930000000000007,294.08,294.08,1012,92,40,5.74909,69.674
95,Vardo,US,1578440044,39.62,-77.74,-0.5099999999999909,270.93,274.26,1014,96,90,4.6977,33.998000000000026
96,Tanout,NE,1578440044,14.97,8.88,16.720000000000027,289.87,289.87,1015,17,43,15.8827,62.096000000000046
97,Provideniya,RU,1578440044,64.42,-173.23,-24.169999999999987,248.98,248.98,1024,91,0,1.43168,-11.505999999999979
98,Khuzhir,RU,1578440044,53.19,107.35,-9.529999999999973,263.62,263.62,1031,81,0,9.05985,14.84600000000005
99,Avarua,CK,1578440044,-21.21,-159.78,28.0,301.15,301.15,1014,78,68,9.1717,82.4
100,Aklavik,CA,1578439923,68.22,-135.01,-38.589999999999975,232.15,236.15,1027,64,5,3.3555,-34.59999999999995
101,Saiha,IN,1578440044,22.49,92.98,10.939999999999998,284.09,284.09,1015,62,2,3.22128,51.69199999999999
102,Iqaluit,CA,1578440045,63.75,-68.52,-26.819999999999965,246.15,246.48,998,62,90,14.987900000000002,-16.00599999999998
103,Korem,ET,1578440045,12.51,39.52,12.390000000000043,285.54,285.54,1016,95,100,3.6239400000000006,54.30200000000008
104,Vari,GR,1578440045,37.83,23.8,5.930000000000007,277.15,280.93,1022,56,75,16.1064,46.004000000000055
105,Nikolskoye,RU,1578440045,59.7,30.79,3.340000000000032,275.93,277.15,1014,80,90,8.948,39.2
106,Zahirabad,IN,1578440045,17.68,77.61,18.700000000000045,291.85,291.85,1013,95,37,5.77146,65.66000000000008
107,Qaanaaq,GL,1578439777,77.48,-69.36,-31.94999999999999,241.2,241.2,987,81,15,1.07376,-25.509999999999984
108,Mar del Plata,AR,1578440046,-46.43,-67.52,19.010000000000048,292.16,292.16,987,20,66,32.61546,66.21800000000009
109,Rognan,NO,1578440046,67.1,15.4,4.0,276.48,278.15,976,80,75,12.750900000000001,41.0
110,Saldanha,PT,1578440046,41.42,-6.55,3.8500000000000227,277.0,277.0,1033,75,54,1.67775,38.93000000000004
111,Chepareria,KE,1578440046,1.32,35.2,20.410000000000025,293.56,293.56,1012,62,41,5.74909,68.73800000000006
112,Zeya,RU,1578440046,53.74,127.27,-26.74999999999997,246.4,246.4,1026,98,0,1.65538,-16.14999999999995
113,Cherskiy,RU,1578440046,68.75,161.3,-28.539999999999964,244.61,244.61,1013,74,0,8.99274,-19.371999999999936
114,Isla Vista,US,1578440046,34.41,-119.86,18.400000000000034,289.26,293.15,1018,28,1,3.3555,68.0
115,Champua,IN,1578440047,22.04,85.66,14.03000000000003,287.18,287.18,1015,59,54,0.82769,57.254000000000055
116,Aras,ES,1578440047,42.56,-2.36,3.400000000000034,273.15,280.93,1031,81,41,12.750900000000001,46.004000000000055
117,West Wendover,US,1578440047,40.74,-114.07,4.0,277.15,277.15,1020,60,1,6.9347,39.2
118,Beloha,MG,1578440047,-25.17,45.06,22.090000000000032,295.24,295.24,1011,88,0,8.54534,71.76200000000006
119,Saint George,GR,1578440047,39.45,22.34,-0.46999999999997044,272.15,273.15,1025,68,20,2.28174,32.0
120,Nagua,DO,1578440047,19.37,-69.85,24.710000000000036,297.15,298.15,1017,94,40,4.6977,77.0
121,Sal Rei,CV,1578440047,16.18,-22.92,20.0,293.15,293.15,1019,60,75,18.3434,68.0
122,Narsaq,GL,1578439790,60.91,-46.05,-13.0,260.15,260.15,990,78,77,4.6977,8.599999999999998
123,Los Lunas,US,1578440047,34.81,-106.76,7.689999999999998,278.15,282.15,1026,19,1,1.5659,48.2
124,Eyl,SO,1578439779,7.98,49.82,25.78000000000003,298.93,298.93,1013,75,92,21.989710000000002,78.40400000000005
125,Dikson,RU,1578440048,73.51,80.55,-18.19999999999999,254.95,254.95,1008,97,93,8.74667,-0.7599999999999838
126,Sharan,AF,1578440048,33.15,68.78,-9.379999999999995,263.77,263.77,1023,59,0,7.359730000000001,15.116000000000007
127,Qasigiannguit,GL,1578440048,68.82,-51.19,-18.99999999999997,254.15,254.15,982,49,40,13.8694,-2.199999999999953
128,Khatanga,RU,1578440048,71.98,102.47,-14.889999999999986,258.26,258.26,1007,95,94,9.52962,5.198000000000025
129,Prado,CO,1578440048,3.75,-74.93,22.610000000000014,295.76,295.76,1013,74,0,3.46735,72.69800000000004
130,Saint-Joseph,FR,1578440048,43.56,6.97,5.0400000000000205,273.15,282.59,1027,93,19,5.8162,48.992
131,Barcelos,BR,1578440048,-0.97,-62.93,27.210000000000036,300.36,300.36,1008,60,47,2.4607,80.97800000000007
132,Morant Bay,JM,1578439992,17.88,-76.41,26.710000000000036,298.15,302.15,1015,70,40,2.237,84.2
133,Tokat,TR,1578440049,40.33,36.55,0.0,273.15,273.15,1012,90,90,12.750900000000001,32.0
134,Kurilsk,RU,1578440049,45.23,147.88,-4.029999999999973,269.12,269.12,1017,74,85,4.49637,24.74600000000005
135,Abu Samrah,SY,1578440049,35.3,37.18,7.78000000000003,280.93,280.93,1012,90,88,9.21644,46.004000000000055
136,Isilkul,RU,1578440049,54.9,71.26,-15.739999999999952,257.41,257.41,1031,95,91,2.84099,3.6680000000000845
137,Guerrero Negro,MX,1578440049,27.97,-114.04,20.850000000000023,294.0,294.0,1017,31,93,6.688630000000001,69.53000000000004
138,Sawtell,AU,1578440049,-30.38,153.1,29.27000000000004,301.15,303.15,1015,51,1,10.2902,86.0
139,Torbay,CA,1578439777,47.66,-52.73,-5.0,267.04,269.26,1015,79,90,5.8162,24.998000000000026
140,Kupang,ID,1578440050,-10.16,123.6,26.0,299.15,299.15,1008,88,90,5.8162,78.80000000000001
141,Half Moon Bay,US,1578440050,37.46,-122.43,13.220000000000027,284.26,288.15,1021,76,20,14.987900000000002,59.0
142,Turayf,SA,1578440050,31.68,38.65,5.0,278.15,278.15,1014,80,10,11.4087,41.0
143,Rio Gallegos,AR,1578439780,-51.62,-69.22,10.0,283.15,283.15,980,87,75,11.4087,50.0
144,Tiksi,RU,1578440050,71.64,128.87,-22.43999999999997,250.71,250.71,1008,89,97,5.391170000000001,-8.391999999999946
145,Bridlington,GB,1578440050,54.08,-0.19,12.770000000000039,285.37,286.48,1009,82,57,17.2249,55.99400000000007
146,Tomatlan,MX,1578440050,19.93,-105.25,24.49000000000001,297.64,297.64,1013,53,53,2.86336,76.08200000000002
147,Presidente Dutra,BR,1578440051,-5.29,-44.49,23.28000000000003,296.43,296.43,1012,94,81,3.46735,73.90400000000005
148,Lagoa,PT,1578440051,37.14,-8.45,10.480000000000018,281.15,285.37,1030,93,0,3.3555,53.99600000000005
149,Aurillac,FR,1578440051,44.93,2.44,6.080000000000041,278.71,279.82,1030,100,70,3.3555,44.00600000000003
150,Luderitz,NA,1578439806,-26.65,15.16,17.0,290.15,290.15,1010,93,74,6.9347,62.6
151,Coahuayana,MX,1578440051,18.62,-100.35,27.600000000000023,300.75,300.75,1015,33,40,2.28174,81.68000000000004
152,Beecher,US,1578440051,41.34,-87.62,2.160000000000025,274.15,276.48,1017,69,90,8.0532,37.99400000000007
153,Sao Filipe,CV,1578439789,14.9,-24.5,19.840000000000032,292.99,292.99,1017,74,96,23.57798,67.71200000000006
154,Puerto Ayora,EC,1578440052,-0.74,-90.35,26.28000000000003,298.71,300.15,1011,74,75,9.1717,80.6
155,Naryan-Mar,RU,1578440052,67.67,53.09,-16.00999999999999,257.14,257.14,1013,96,14,11.11789,3.1820000000000164
156,San Cristobal,HN,1578440052,14.68,-86.92,17.840000000000032,290.99,290.99,1017,94,61,5.83857,64.11200000000005
157,Komsomolskiy,RU,1578440052,67.55,63.78,-16.379999999999995,256.77,256.77,1018,96,99,7.89661,2.516000000000009
158,Mayumba,GA,1578440052,-3.44,10.65,27.28000000000003,300.43,300.43,1010,75,100,1.65538,81.10400000000006
159,Adiake,CI,1578440052,5.29,-3.3,25.0,298.15,298.15,1012,83,43,1.1185,77.0
160,Pacific Grove,US,1578440052,36.62,-121.92,13.670000000000016,284.82,288.71,1021,67,1,10.2902,60.00800000000001
161,Dingle,PH,1578440052,11.0,122.67,24.5,297.65,297.65,1012,90,100,9.6191,76.1
162,Sandur,IQ,1578440053,36.91,43.06,3.2600000000000477,276.41,276.41,1019,56,0,5.72672,37.86800000000009
163,Potosi,BO,1578440053,-19.59,-65.75,11.710000000000036,284.86,284.86,1010,74,90,8.88089,53.07800000000007
164,Malaya Purga,RU,1578440053,56.55,53.01,-5.0,268.15,268.15,1027,94,83,0.91717,23.0
165,Kavaratti,IN,1578439797,10.57,72.64,27.74000000000001,300.89,300.89,1011,73,36,11.833730000000001,81.93200000000002
166,San Patricio,PY,1578440053,-26.98,-56.83,25.28000000000003,298.43,298.43,1006,30,0,4.27267,77.50400000000005
167,Carndonagh,IE,1578440053,55.25,-7.27,5.710000000000036,278.86,278.86,1011,81,100,9.95465,42.27800000000006
168,Jacareacanga,BR,1578440053,-6.22,-57.76,24.470000000000027,297.62,297.62,1010,92,96,1.63301,76.04600000000005
169,Dalby,AU,1578440053,-27.18,151.26,28.350000000000023,299.15,303.71,1018,54,62,6.9347,87.00800000000001
170,Zhangjiakou,CN,1578440054,40.77,114.88,-16.359999999999957,256.79,256.79,1036,83,0,5.256950000000001,2.5520000000000778
171,Arman,RU,1578440054,59.7,150.17,-12.120000000000005,261.03,261.03,1010,82,100,8.52297,10.18399999999999
172,Rizhao,CN,1578440054,35.43,119.46,-2.2299999999999613,270.92,270.92,1027,74,2,9.50725,27.986000000000068
173,Manggar,ID,1578440054,-2.88,108.27,27.310000000000002,300.46,300.46,1009,82,100,12.23639,81.15800000000002
174,Camacupa,AO,1578440054,-12.02,17.48,16.430000000000007,289.58,289.58,1015,96,100,3.1318,61.57400000000001
175,Poronaysk,RU,1578440054,49.22,143.1,-8.329999999999984,264.82,264.82,1014,64,0,1.96856,17.00600000000003
176,Camacha,PT,1578440054,33.08,-16.33,16.57000000000005,289.15,290.15,1032,67,40,9.1717,62.6
177,Nome,US,1578440054,30.04,-94.42,15.760000000000048,284.82,291.15,1028,25,1,4.6977,64.4
178,Northam,AU,1578440055,-31.65,116.67,19.560000000000002,292.15,293.15,1007,77,0,8.0532,68.0
179,Warmbad,DE,1578440055,50.67,13.08,1.400000000000034,272.59,276.48,1027,86,53,8.0532,37.99400000000007
180,Upernavik,GL,1578439771,72.79,-56.15,-25.649999999999977,247.5,247.5,989,72,100,4.49637,-14.169999999999959
181,Bonnyville,CA,1578440055,54.27,-110.74,-19.99999999999997,253.15,253.15,1020,58,75,8.0532,-3.9999999999999503
182,Ontario,US,1578440051,34.07,-117.65,19.77000000000004,282.04,299.15,1018,10,1,2.88573,78.80000000000001
183,Kaeo,NZ,1578440055,-35.1,173.78,20.930000000000007,293.15,295.37,1017,53,40,7.00181,71.99600000000005
184,Arraial do Cabo,BR,1578440055,-22.97,-42.02,28.0,301.15,301.15,1009,78,20,4.6977,82.4
185,San Policarpo,PH,1578440056,12.18,125.51,26.610000000000014,299.76,299.76,1013,83,100,11.99032,79.89800000000002
186,Hasaki,JP,1578440056,35.73,140.83,4.189999999999998,277.04,278.15,1008,100,75,2.237,41.0
187,Verkh-Suetka,RU,1578440056,53.3,80.05,-12.729999999999961,260.42,260.42,1031,96,99,5.27932,9.08600000000007
188,Luganville,VU,1578440056,-15.51,167.18,30.0,303.15,303.15,1011,70,75,11.4087,86.0
189,Nara,JP,1578440056,34.68,135.8,11.100000000000023,281.48,287.15,1005,93,75,4.6977,57.2
190,Port Augusta,AU,1578440056,-32.49,137.76,27.30000000000001,298.15,302.59,1014,53,0,9.1717,84.99199999999999
191,Abnub,EG,1578440056,27.27,31.15,7.0,280.15,280.15,1022,70,0,11.4087,44.6
192,Richards Bay,ZA,1578439793,-28.77,32.06,25.24000000000001,298.39,298.39,1013,80,98,14.607610000000001,77.43200000000002
193,Palmer,AU,1578440057,-34.85,139.16,28.930000000000007,298.15,305.37,1015,41,1,8.0532,89.99600000000005
194,Ratnagiri,IN,1578440057,16.98,73.3,21.0,294.15,294.15,1012,89,54,1.63301,69.80000000000001
195,Port Lincoln,AU,1578440057,-34.72,135.86,23.840000000000032,296.99,296.99,1014,48,0,7.87424,74.91200000000006
196,Adrar,DZ,1578440057,27.87,-0.29,9.0,282.15,282.15,1023,45,25,11.4087,48.2
197,Lebu,ET,1578439796,8.96,38.73,11.230000000000018,284.38,284.38,1017,90,87,1.99093,52.214000000000034
198,Marsh Harbour,BS,1578439824,26.54,-77.06,21.5,294.65,294.65,1022,60,27,7.404470000000001,70.7
199,Markala,ML,1578440057,13.69,-6.07,20.689999999999998,293.84,293.84,1012,16,67,10.46916,69.24199999999999
200,Castro,CL,1578440057,-42.48,-73.76,12.0,285.15,285.15,1002,81,90,6.9347,53.6
201,Karlstad,SE,1578440057,59.38,13.5,5.310000000000002,278.15,278.71,1002,93,100,24.1596,42.008
202,Male,UA,1578440058,50.74,33.7,-5.009999999999991,268.14,268.14,1031,85,0,2.99758,22.982000000000014
203,Katsuura,JP,1578440058,33.93,134.5,13.180000000000007,285.15,288.15,1003,93,40,5.8162,59.0
204,Port Elizabeth,US,1578440058,39.31,-74.98,2.830000000000041,273.15,278.71,1011,93,90,10.2902,42.008
205,Biak,ID,1578440058,-0.91,122.88,28.200000000000045,301.35,301.35,1010,72,98,9.79806,82.76000000000008
206,Xining,CN,1578440058,36.62,101.77,-8.45999999999998,264.69,264.69,1021,66,100,4.78718,16.772000000000034
207,Mbuji-Mayi,CD,1578440058,-6.13,23.6,21.28000000000003,294.43,294.43,1011,87,100,2.39359,70.30400000000006
208,Batagay-Alyta,RU,1578440058,67.8,130.41,-21.879999999999967,251.27,251.27,1012,83,100,3.01995,-7.3839999999999435
209,Boca do Acre,BR,1578440058,-8.76,-67.39,27.07000000000005,300.22,300.22,1007,65,28,2.37122,80.72600000000008
210,Nemuro,JP,1578440059,43.32,145.57,-2.319999999999993,270.83,270.83,1018,76,100,5.41354,27.824000000000012
211,Tarko-Sale,RU,1578440059,64.92,77.78,-20.559999999999974,252.59,252.59,1017,84,38,11.162630000000002,-5.007999999999953
212,Salalah,OM,1578440059,17.01,54.1,24.0,297.15,297.15,1016,53,0,9.1717,75.2
213,Mareeba,AU,1578440059,-16.99,145.42,28.80000000000001,300.37,303.15,1011,74,75,12.750900000000001,86.0
214,Bandarbeyla,SO,1578440059,9.49,50.81,25.939999999999998,299.09,299.09,1014,75,100,18.96976,78.69200000000001
215,Fugen,AT,1578440059,47.35,11.85,-2.2399999999999523,268.15,272.59,1032,92,15,2.237,30.991999999999997
216,Esperance,AU,1578440059,-33.86,121.89,19.0,292.15,292.15,1006,100,90,10.2902,66.2
217,Fare,PF,1578440059,-16.7,-151.02,27.910000000000025,301.06,301.06,1011,79,8,19.2382,82.23800000000006
218,Kodiak,US,1578440060,39.95,-94.76,7.28000000000003,278.71,282.15,1021,36,1,9.1717,48.2
219,Sinazongwe,ZM,1578440060,-17.26,27.46,25.52000000000004,298.67,298.67,1010,76,67,4.11608,77.93600000000006
220,Tiznit,MA,1578439763,29.7,-9.73,9.590000000000032,282.74,282.74,1026,49,0,2.5278099999999997,49.26200000000006
221,Kahului,US,1578440060,20.89,-156.47,24.04000000000002,294.82,300.15,1019,61,40,21.922600000000003,80.6
222,Beringovskiy,RU,1578440060,63.05,179.32,-20.47999999999999,252.67,252.67,1020,98,97,7.09129,-4.863999999999983
223,Charagua,BO,1578440060,-19.79,-63.2,24.0,297.15,297.15,1012,78,90,3.17654,75.2
224,Chato,TZ,1578440060,-2.64,31.77,21.730000000000018,294.88,294.88,1012,77,61,7.8295,71.11400000000003
225,Sawakin,SD,1578440060,19.1,37.33,23.49000000000001,296.64,296.64,1015,67,38,8.99274,74.28200000000001
226,San Quintin,PH,1578439793,17.54,120.52,22.629999999999995,295.78,295.78,1014,74,32,3.75816,72.734
227,Yatou,CM,1578439771,3.63,9.81,27.0,300.15,300.15,1010,94,40,1.1185,80.6
228,Split,HR,1578439837,43.51,16.44,6.480000000000018,275.93,282.04,1026,26,26,4.6977,48.00200000000008
229,Westport,US,1578439842,41.14,-73.36,3.1200000000000045,274.26,278.15,1014,60,90,6.9347,41.0
230,Cabedelo,BR,1578440061,-6.97,-34.84,28.0,301.15,301.15,1013,83,40,9.1717,82.4
231,Jauharabad,PK,1578440061,32.29,72.28,7.520000000000039,280.67,280.67,1015,77,1,3.19891,45.53600000000007
232,Goure,NE,1578440061,13.98,10.27,18.33000000000004,291.48,291.48,1015,22,76,9.99939,64.99400000000009
233,Chokurdakh,RU,1578440061,70.62,147.9,-32.25999999999999,240.89,240.89,1011,93,0,5.74909,-26.067999999999984
234,Saskylakh,RU,1578440061,71.97,114.09,-19.74999999999997,253.4,253.4,1006,97,96,8.097940000000001,-3.5499999999999474
235,Husavik,CA,1578440062,50.56,-96.99,-18.889999999999986,254.26,254.26,1026,76,98,7.00181,-2.001999999999974
236,Stephenville,CA,1578439936,48.55,-58.59,-5.17999999999995,267.59,268.15,1014,85,90,4.6977,23.0
237,Nehe,CN,1578440063,48.48,124.88,-19.129999999999967,254.02,254.02,1026,93,0,7.02418,-2.4339999999999407
238,Hami,CN,1578439772,42.84,93.51,-9.71999999999997,263.43,263.43,1029,59,0,3.91475,14.504000000000051
239,Pontianak,ID,1578440063,-0.02,109.34,24.82000000000005,297.97,297.97,1009,92,100,1.09613,76.6760000000001
240,Bundaberg,AU,1578440063,-24.87,152.35,28.77000000000004,301.15,302.59,1015,51,40,5.8162,84.99199999999999
241,Kabo,CF,1578440063,7.69,18.62,22.57000000000005,295.72,295.72,1009,33,10,2.81862,72.62600000000009
242,Avanigadda,IN,1578440063,16.02,80.92,22.360000000000014,295.51,295.51,1014,81,40,2.93047,72.24800000000002
243,Katherine,AU,1578440064,-14.47,132.26,27.0,300.15,300.15,1009,78,40,1.1185,80.6
244,Bonthe,SL,1578440064,7.53,-12.5,24.910000000000025,298.06,298.06,1011,75,47,6.73337,76.83800000000005
245,Ancud,CL,1578440064,-41.87,-73.83,12.0,285.15,285.15,1002,81,90,6.9347,53.6
246,Sioux Lookout,CA,1578440064,50.1,-91.92,-19.119999999999976,253.15,255.15,1014,77,75,10.2902,-0.39999999999994884
247,Kiama,AU,1578440064,-34.67,150.86,23.24000000000001,295.93,297.59,1016,56,75,11.4087,75.99199999999999
248,Antofagasta,CL,1578439846,-23.65,-70.4,22.0,295.15,295.15,1013,73,20,11.4087,71.6
249,Kirakira,SB,1578440064,-10.46,161.92,28.010000000000048,301.16,301.16,1008,78,100,4.56348,82.41800000000009
250,Tyumentsevo,RU,1578440064,53.32,81.5,-12.879999999999995,260.27,260.27,1032,95,99,4.94377,8.816000000000006
251,Jackson,US,1578439820,43.48,-110.76,1.670000000000016,274.15,275.15,1021,74,90,3.3555,35.6
252,Magadi,IN,1578440065,12.96,77.22,18.0,291.15,291.15,1017,100,40,5.8162,64.4
253,Tual,ID,1578440065,-5.67,132.75,28.060000000000002,301.21,301.21,1008,76,100,9.03748,82.50800000000001
254,Brejo da Madre de Deus,BR,1578440065,-8.14,-36.37,23.379999999999995,296.53,296.53,1013,76,78,10.581010000000001,74.084
255,Mucurapo,TT,1578439805,10.67,-61.53,26.08000000000004,298.71,299.82,1014,78,20,4.6977,80.00600000000003
256,Abu Kamal,SY,1578440065,34.45,40.92,9.82000000000005,282.97,282.97,1014,55,0,8.366380000000001,49.67600000000009
257,Pochutla,MX,1578440065,15.74,-96.47,29.860000000000014,302.15,304.15,1013,45,5,10.2902,87.80000000000001
258,Nesna,NO,1578440066,66.2,13.02,2.3600000000000136,275.15,275.93,981,93,75,2.237,37.004000000000055
259,Hambantota,LK,1578440066,6.12,81.12,26.620000000000005,299.77,299.77,1010,79,82,21.4752,79.91600000000001
260,Te Anau,NZ,1578439792,-45.41,167.72,10.140000000000043,283.29,283.29,1015,72,100,4.11608,50.25200000000008
261,Naze,NG,1578440066,5.43,7.07,24.0,297.15,297.15,1010,78,100,3.75816,75.2
262,Bethel,US,1578439770,60.79,-161.76,-27.75999999999999,245.15,246.15,1018,68,1,14.987900000000002,-16.59999999999995
263,Bathsheba,BB,1578439808,13.22,-59.52,26.0,299.15,299.15,1015,74,40,16.1064,78.80000000000001
264,Karlskoga,SE,1578440066,59.33,14.52,6.010000000000048,278.15,280.37,1005,70,100,19.4619,44.99600000000005
265,Japura,ID,1578440067,-0.42,102.29,23.640000000000043,296.79,296.79,1011,92,99,2.4607,74.55200000000008
266,Imphal,IN,1578440067,24.8,93.94,6.980000000000018,280.13,280.13,1016,93,0,3.84764,44.564000000000036
267,Novyy Yarychiv,UA,1578440067,49.9,24.31,-8.0,265.15,265.15,1029,92,0,2.237,17.6
268,Cayenne,GF,1578439803,4.94,-52.33,27.0,300.15,300.15,1013,83,95,6.9347,80.6
269,Adrasmon,TJ,1578440067,40.65,69.99,0.0,273.15,273.15,1027,81,90,6.711,32.0
270,Luwingu,ZM,1578440067,-10.26,29.92,16.810000000000002,289.96,289.96,1013,96,100,3.55683,62.25800000000001
271,Norman Wells,CA,1578439770,65.28,-126.83,-40.99999999999997,232.15,232.15,1027,64,20,2.237,-41.799999999999955
272,Tshikapa,CD,1578440068,-6.42,20.79,20.80000000000001,293.95,293.95,1012,95,100,1.23035,69.44000000000003
273,Los Llanos de Aridane,ES,1578440068,28.66,-17.92,16.910000000000025,288.15,292.15,1029,68,75,6.9347,66.2
274,Sao Joao da Barra,BR,1578440068,-21.64,-41.05,25.80000000000001,298.95,298.95,1010,88,85,17.56045,78.44000000000003
275,Mhango,TZ,1578440068,-2.75,33.92,18.160000000000025,291.31,291.31,1012,89,13,1.58827,64.68800000000005
276,Clyde River,CA,1578440068,70.47,-68.59,-29.99999999999997,243.15,243.15,988,55,40,4.38452,-21.99999999999995
277,Togur,RU,1578440068,58.36,82.83,-15.579999999999984,257.57,257.57,1029,97,70,3.28839,3.956000000000028
278,Sault Sainte Marie,CA,1578440068,46.49,-84.36,-2.669999999999959,270.15,271.15,1007,73,90,14.987900000000002,28.4
279,Cap Malheureux,MU,1578440069,-19.98,57.61,25.53000000000003,298.15,299.15,1012,88,75,3.22128,78.80000000000001
280,Yarada,IN,1578440069,17.65,83.27,18.0,291.15,291.15,1014,100,20,2.237,64.4
281,Olinda,AU,1578439813,-37.84,145.39,20.53000000000003,292.59,295.37,1018,68,40,12.750900000000001,71.99600000000005
282,Magadan,RU,1578440069,59.56,150.8,-16.95999999999998,256.19,256.19,1010,88,66,11.94558,1.4720000000000368
283,Petropavlovsk-Kamchatskiy,RU,1578440069,53.05,158.65,-9.0,264.15,264.15,1002,61,96,8.948,15.8
284,Marevo,BA,1578440069,43.57,18.7,-10.0,263.15,263.15,1031,92,0,1.1185,14.0
285,Riyadh,SA,1578440069,24.63,46.72,10.0,283.15,283.15,1020,71,0,4.6977,50.0
286,Chulumani,BO,1578440070,-16.41,-67.53,14.610000000000014,287.76,287.76,1012,95,100,2.21463,58.29800000000003
287,Nova Olinda do Norte,BR,1578440070,-3.89,-59.1,25.0,298.15,298.15,1009,94,100,1.36457,77.0
288,Neryungri,RU,1578440070,56.66,124.71,-15.599999999999966,257.55,257.55,1027,87,89,4.048970000000001,3.920000000000062
289,Mitu,IR,1578440070,36.2,46.09,-4.329999999999984,268.82,268.82,1021,64,0,2.81862,24.206000000000028
290,Touros,BR,1578439799,-5.2,-35.46,28.0,301.15,301.15,1012,78,40,4.6977,82.4
291,Nombre de Dios,MX,1578440070,23.85,-104.24,20.0,293.15,293.15,1026,13,5,5.8162,68.0
292,San Andres,PH,1578440070,13.32,122.68,25.450000000000045,298.6,298.6,1013,83,82,8.187420000000001,77.81000000000009
293,Gallup,US,1578440070,35.53,-108.74,7.53000000000003,280.15,281.15,1026,39,1,8.0532,46.4
294,Bambanglipuro,ID,1578440071,-7.95,110.28,25.0,298.15,298.15,1009,86,79,2.79625,77.0
295,Souillac,FR,1578440071,45.6,-0.6,10.370000000000005,282.15,284.26,1031,100,90,4.6977,51.998000000000026
296,Mindelo,PT,1578440071,41.31,-8.72,3.980000000000018,273.71,278.71,1032,86,4,5.8162,42.008
297,Rorvik,NO,1578440071,64.86,11.24,6.670000000000016,279.82,279.82,976,83,100,5.99516,44.00600000000003
298,Port Blair,IN,1578439788,11.67,92.75,26.33000000000004,299.48,299.48,1011,79,83,13.35489,79.39400000000008
299,San Carlos,NI,1578440071,11.12,-84.78,21.110000000000014,294.26,294.26,1014,60,3,9.95465,69.99800000000002
300,Mustafabad,IN,1578440072,29.64,77.11,11.629999999999995,284.78,284.78,1014,98,83,0.46977,52.934
301,Astoria,US,1578439895,46.19,-123.83,9.360000000000014,281.48,283.71,1007,87,90,18.3434,51.00800000000001
302,Betanzos,ES,1578440072,43.28,-8.21,9.870000000000005,277.04,287.04,1031,93,90,5.8162,57.00200000000008
303,Havelock,US,1578439882,34.88,-76.9,13.800000000000011,285.37,289.15,1015,44,40,20.804100000000002,60.8
304,Iberia,PE,1578440072,-11.41,-69.49,26.890000000000043,300.04,300.04,1007,61,64,3.33313,80.40200000000007
305,Wanaka,NZ,1578439792,-44.7,169.14,19.439999999999998,292.59,292.59,1015,45,99,1.99093,66.99199999999999
306,Westerland,NL,1578440073,52.89,4.93,7.980000000000018,280.37,282.15,1017,93,90,32.2128,48.2
307,Stillwater,US,1578440073,36.12,-97.06,14.300000000000011,284.26,289.82,1024,18,1,6.9347,62.00600000000003
308,Lasa,CY,1578439800,34.92,32.53,11.360000000000014,281.48,287.15,1008,71,75,8.0532,57.2
309,Kaputa,ZM,1578440073,-8.47,29.66,18.360000000000014,291.51,291.51,1013,93,96,1.99093,65.04800000000003
310,Moron,HT,1578440073,18.56,-74.26,25.140000000000043,298.29,298.29,1017,78,1,9.283550000000002,77.25200000000008
311,Beyneu,KZ,1578440073,45.32,55.19,-2.0600000000000023,271.09,271.09,1029,76,100,9.55199,28.291999999999994
312,Tecoanapa,MX,1578440074,16.99,-99.26,29.0,302.15,302.15,1012,70,20,6.9347,84.2
313,Ayan,IR,1578439782,38.23,44.7,-9.839999999999975,263.31,263.31,1024,49,0,7.359730000000001,14.288000000000043
314,Machilipatnam,IN,1578440074,16.18,81.14,22.360000000000014,295.51,295.51,1014,81,40,2.93047,72.24800000000002
315,Prince George,CA,1578440074,53.92,-122.75,-6.389999999999986,266.15,267.59,999,92,90,17.2249,21.991999999999997
316,Monrovia,LR,1578440074,6.33,-10.8,24.0,297.15,297.15,1012,94,20,7.47158,75.2
317,Caravelas,BR,1578439812,-17.73,-39.27,23.710000000000036,296.86,296.86,1012,90,1,8.07557,74.67800000000007
318,Ambilobe,MG,1578440075,-13.19,49.05,24.400000000000034,297.55,297.55,1011,91,36,4.38452,75.92000000000007
319,Jalu,LY,1578440075,29.03,21.55,9.350000000000023,282.5,282.5,1023,80,7,9.015110000000002,48.83000000000004
320,Vestmannaeyjar,IS,1578440075,63.44,-20.27,-0.20999999999997954,272.94,272.94,964,62,100,49.214,31.622000000000035
321,Gat,SN,1578439800,14.69,-16.54,19.0,292.15,292.15,1015,32,99,12.61668,66.2
322,Dunedin,NZ,1578439806,-45.87,170.5,11.720000000000027,284.87,284.87,1014,69,75,5.077990000000001,53.096000000000046
323,Kalmunai,LK,1578440075,7.42,81.82,27.090000000000032,300.24,300.24,1010,79,90,20.71462,80.76200000000006
324,Casablanca,MA,1578440076,33.6,-7.62,10.510000000000048,280.15,287.04,1028,93,0,3.3555,57.00200000000008
325,Bereznik,RU,1578440076,62.86,42.71,-2.4699999999999704,270.68,270.68,1012,95,100,9.03748,27.554000000000052
326,Inirida,CO,1578440076,3.87,-67.92,25.600000000000023,298.75,298.75,1009,69,0,2.41596,78.08000000000004
327,Bajil,ES,1578440076,38.23,-2.07,1.670000000000016,274.82,274.82,909,77,5,1.99093,35.00600000000003
328,Mahibadhoo,MV,1578440076,3.78,72.97,27.879999999999995,301.03,301.03,1010,77,93,13.757550000000002,82.184
329,Mirnyy,RU,1578440077,56.57,36.46,-0.2699999999999818,272.88,272.88,1023,92,100,8.07557,31.51400000000003
330,Sfantu Gheorghe,RO,1578440077,44.65,26.83,-4.849999999999966,266.15,270.93,1030,92,0,1.1185,28.004000000000055
331,Mogadishu,SO,1578440077,2.04,45.34,27.350000000000023,300.5,300.5,1010,81,100,22.92925,81.23000000000005
332,Buala,SB,1578440077,-8.15,159.59,28.980000000000018,302.13,302.13,1007,77,76,11.520550000000002,84.16400000000004
333,Freeport,BS,1578440077,26.54,-78.7,21.0,294.15,294.15,1022,68,40,3.3555,69.80000000000001
334,Abeche,TD,1578440077,13.83,20.83,20.810000000000002,293.96,293.96,1013,21,0,14.0931,69.458
335,San Juan del Sur,NI,1578440077,11.25,-85.87,28.0,301.15,301.15,1011,61,20,6.9347,82.4
336,Ballina,IE,1578440078,54.11,-9.15,7.3700000000000045,279.82,280.93,1013,83,100,8.008460000000001,46.004000000000055
337,Kaspiyskiy,RU,1578440078,45.39,47.37,1.3000000000000114,274.45,274.45,1022,85,100,15.815590000000002,34.34000000000002
338,Sorland,NO,1578440078,67.67,12.69,6.430000000000007,279.58,279.58,972,83,100,32.8839,43.57400000000001
339,Ankara,TR,1578439800,39.92,32.85,2.150000000000034,274.15,276.15,1012,100,90,1.1185,37.4
340,Brae,GB,1578440078,60.4,-1.35,7.439999999999998,280.15,281.15,985,65,98,34.4498,46.4
341,Kudahuvadhoo,MV,1578440078,2.67,72.89,27.960000000000036,301.11,301.11,1010,78,61,13.802290000000001,82.32800000000006
342,Maturin,VE,1578440078,9.75,-63.18,22.75,295.9,295.9,1014,82,27,6.599150000000001,72.95
343,Hofn,IS,1578440079,64.25,-15.21,0.9300000000000068,274.08,274.08,963,58,84,47.111219999999996,33.674000000000014
344,Airai,TL,1578440079,-8.93,125.41,25.260000000000048,298.41,298.41,1008,57,49,1.74486,77.46800000000009
345,Tautira,PF,1578440079,-17.73,-149.15,30.0,303.15,303.15,1011,70,40,8.0532,86.0
346,Kutum,SD,1578440079,14.2,24.66,14.980000000000018,288.13,288.13,1016,28,0,5.86094,58.964000000000034
347,Along,IN,1578440079,28.17,94.8,9.330000000000041,282.48,282.48,1020,66,98,4.048970000000001,48.794000000000075
348,Tiruchchendur,IN,1578440079,8.48,78.12,24.0,297.15,297.15,1012,94,40,6.9347,75.2
349,Puerto Leguizamo,CO,1578440080,-0.19,-74.78,26.99000000000001,300.14,300.14,1008,62,9,4.07134,80.58200000000002
350,Nouadhibou,MR,1578439819,20.93,-17.03,15.0,288.15,288.15,1020,67,46,17.2249,59.0
351,Acapulco,MX,1578440080,16.86,-99.88,29.0,302.15,302.15,1012,70,20,6.9347,84.2
352,Carbonia,IT,1578440080,39.17,8.53,10.910000000000025,283.15,284.82,1025,93,20,3.3555,53.00600000000003
353,Soyo,AO,1578440080,-6.13,12.37,26.450000000000045,299.6,299.6,1010,82,100,3.66868,79.61000000000008
354,Ucluelet,CA,1578440080,48.94,-125.55,8.5,280.93,282.15,1002,81,90,16.1064,48.2
355,Fairbanks,US,1578440081,64.84,-147.72,-31.18999999999997,240.93,243.71,1021,67,75,1.02902,-20.991999999999948
356,Limbang,BN,1578440081,4.75,115.01,26.32000000000005,298.71,300.15,1010,88,75,1.1185,80.6
357,Vilhena,BR,1578440081,-12.74,-60.15,24.0,297.15,297.15,1011,100,20,6.9347,75.2
358,Grafton,AU,1578440081,-29.69,152.93,29.210000000000036,301.15,303.15,1016,54,21,9.1717,86.0
359,Moen,BE,1578440081,50.77,3.4,8.910000000000025,280.37,283.15,1026,93,82,12.750900000000001,50.0
360,Taua,BR,1578440081,-3.62,-49.62,23.640000000000043,296.79,296.79,1011,95,99,1.47642,74.55200000000008
361,Rincon,PA,1578440081,8.46,-82.28,26.450000000000045,292.04,305.15,1008,40,20,19.4619,89.6
362,Mahon,IE,1578440081,51.89,-8.4,9.310000000000002,282.15,282.59,1016,87,40,9.1717,48.992
363,Gimli,CA,1578439811,50.63,-96.99,-18.889999999999986,254.26,254.26,1026,76,98,7.00181,-2.001999999999974
364,Ingham,AU,1578440082,-18.65,146.16,27.470000000000027,300.62,300.62,1011,74,65,4.85429,81.44600000000005
365,Nanortalik,GL,1578440082,60.14,-45.24,-5.849999999999966,267.3,267.3,991,88,100,4.31741,21.470000000000063
366,North Bend,US,1578439813,43.41,-124.22,8.560000000000002,280.93,283.15,1014,93,90,5.8162,50.0
367,Kozluk,TR,1578440082,38.17,41.5,5.0,278.15,278.15,1017,80,75,6.9347,41.0
368,Sirmaur,IN,1578440082,24.84,81.37,13.330000000000041,286.48,286.48,1014,67,24,5.79383,55.99400000000007
369,Zheleznodorozhnyy,RU,1578440082,55.75,38.0,-0.3499999999999659,272.15,273.71,1024,95,90,6.711,33.008
370,Broome,GB,1578440082,52.47,1.45,12.480000000000018,284.26,287.04,1016,93,100,19.4619,57.00200000000008
371,Sibolga,ID,1578440083,1.74,98.78,21.010000000000048,294.16,294.16,1010,95,68,3.71342,69.8180000000001
372,Luau,CD,1578440083,-10.7,22.23,18.83000000000004,291.98,291.98,1013,97,100,2.5278099999999997,65.89400000000008
373,Walvis Bay,NA,1578440083,-22.95,14.51,17.82000000000005,290.15,291.48,1013,88,0,3.3555,64.99400000000009
374,Solwezi,ZM,1578440083,-12.18,26.4,16.99000000000001,290.14,290.14,1013,98,100,1.99093,62.58200000000002
375,Tondano,ID,1578440083,1.3,124.91,23.0,296.15,296.15,1011,100,75,3.3555,73.4
376,Juneau,US,1578440084,58.3,-134.42,0.020000000000038654,272.15,274.26,1007,95,90,10.2902,33.998000000000026
377,Sobolevo,RU,1578439785,54.43,31.9,-1.17999999999995,271.97,271.97,1028,95,83,8.90326,29.87600000000009
378,Kalmar,SE,1578440085,56.66,16.36,5.510000000000048,278.15,279.15,1015,87,20,14.987900000000002,42.8
379,Victoria,BN,1578440085,5.28,115.24,26.260000000000048,298.71,300.15,1010,88,75,4.6977,80.6
380,Charlestown,US,1578440085,41.38,-71.64,2.230000000000018,273.15,277.59,1014,55,75,4.6977,39.992
381,Micomeseng,GQ,1578440085,2.15,10.62,21.689999999999998,294.84,294.84,1010,98,46,1.85671,71.042
382,Parkes,AU,1578440085,-33.14,148.18,33.35000000000002,306.5,306.5,1013,31,46,12.392980000000001,92.03000000000004
383,Dolinsk,RU,1578440085,47.32,142.8,-17.0,256.15,256.15,1017,84,0,2.237,1.3999999999999986
384,Alice Springs,AU,1578440085,-23.7,133.88,30.0,303.15,303.15,1013,30,91,9.1717,86.0
385,Mankato,US,1578439814,44.16,-94.0,-8.099999999999966,262.15,268.15,1020,67,1,20.804100000000002,23.0
386,Paris,FR,1578439923,48.86,2.35,10.020000000000039,282.04,284.26,1027,93,90,5.8162,51.998000000000026
387,Chirongui,YT,1578440086,-12.93,45.15,27.0,300.15,300.15,1011,94,61,1.1185,80.6
388,Lalmohan,BD,1578440086,22.34,90.74,15.850000000000023,289.0,289.0,1015,64,28,6.95707,60.530000000000044
389,Cururupu,BR,1578440086,-1.82,-44.87,23.840000000000032,296.99,296.99,1012,90,45,2.66203,74.91200000000006
390,Eureka,US,1578440086,40.8,-124.16,9.439999999999998,279.82,284.15,1018,81,90,9.1717,51.8
391,Anzio,IT,1578440086,41.45,12.63,4.1299999999999955,274.82,280.37,1024,74,75,2.237,44.99600000000005
392,Smithers,CA,1578440040,54.78,-127.17,-9.0,264.15,264.15,1004,92,90,2.237,15.8
393,Mount Gambier,AU,1578440087,-37.83,140.78,22.0,295.15,295.15,1018,56,89,11.4087,71.6
394,Banepa,NP,1578440087,27.63,85.52,8.0,281.15,281.15,1018,100,75,2.237,46.4
395,Loveland,US,1578440087,40.4,-105.08,12.840000000000032,284.15,287.15,1020,15,1,10.2902,57.2
396,Khani,GE,1578440087,41.96,42.96,9.0,282.15,282.15,1014,45,40,11.4087,48.2
397,Martapura,ID,1578440087,-3.41,114.85,25.28000000000003,298.43,298.43,1010,86,100,0.82769,77.50400000000005
398,Comodoro Rivadavia,AR,1578440087,-45.87,-67.48,22.0,295.15,295.15,990,28,20,28.857300000000002,71.6
399,Marzuq,YE,1578440087,14.4,46.47,16.560000000000002,289.71,289.71,1016,90,63,2.21463,61.80800000000001
400,Sao Borja,BR,1578440088,-28.66,-56.0,23.439999999999998,296.59,296.59,1007,34,0,1.7896,74.19200000000001
401,Port Moresby,PG,1578440088,-9.47,147.16,27.0,300.15,300.15,1009,88,75,5.8162,80.6
402,Poli,CM,1578440088,8.48,13.24,23.32000000000005,296.47,296.47,1011,27,0,4.74244,73.97600000000008
403,Manjo,CM,1578440088,4.85,9.82,21.480000000000018,294.63,294.63,1010,53,98,1.83434,70.66400000000004
404,Evensk,RU,1578439826,61.92,159.24,-22.579999999999984,250.57,250.57,1014,72,44,5.32406,-8.64399999999997
405,Gondanglegi,ID,1578440088,-7.75,112.01,25.02000000000004,298.17,298.17,1010,87,11,4.31741,77.03600000000007
406,Otavi,NA,1578440089,-19.64,17.34,19.860000000000014,293.01,293.01,1009,59,100,6.84522,67.74800000000002
407,Rundu,NA,1578440089,-17.91,19.77,21.0,294.15,294.15,1016,100,100,2.237,69.80000000000001
408,Constitucion,MX,1578440089,23.99,-104.67,20.0,293.15,293.15,1026,13,5,5.8162,68.0
409,Koltubanovskiy,RU,1578440089,52.94,52.03,-10.739999999999952,262.41,262.41,1029,97,95,2.10278,12.668000000000085
410,Jacmel,HT,1578440089,18.24,-72.54,28.0,301.15,301.15,1016,65,20,6.9347,82.4
411,Mount Isa,AU,1578440089,-20.73,139.49,31.0,304.15,304.15,1011,48,95,10.2902,87.80000000000001
412,Campbell River,CA,1578440090,50.02,-125.24,7.680000000000007,279.82,282.15,1000,100,90,3.3555,48.2
413,Snasa,NO,1578440090,64.25,12.38,0.11000000000001364,273.26,273.26,982,94,100,8.20979,32.19800000000002
414,Rome,IT,1578440090,41.89,12.48,3.8000000000000114,274.82,280.15,1024,74,75,2.237,44.6
415,Fernandina Beach,US,1578439817,30.67,-81.46,17.400000000000034,288.15,293.15,1020,63,1,9.1717,68.0
416,Nishihara,JP,1578440090,35.74,139.53,4.3700000000000045,275.93,279.26,1007,93,90,2.59492,42.998000000000026
417,Jasper,US,1578439976,33.83,-87.28,9.660000000000025,282.04,284.15,1026,37,1,6.9347,51.8
418,Durango,MX,1578440090,24.02,-104.67,20.0,293.15,293.15,1026,13,5,5.8162,68.0
419,Namatanai,PG,1578440090,-3.66,152.44,29.78000000000003,302.93,302.93,1007,68,100,4.74244,85.60400000000006
420,Yumen,CN,1578440090,40.29,97.04,-12.079999999999984,261.07,261.07,1028,76,29,2.39359,10.256000000000029
421,General Roca,AR,1578440091,-39.03,-67.58,29.0,302.15,302.15,1000,20,0,17.2249,84.2
422,Yerbogachen,RU,1578440091,61.28,108.01,-12.589999999999975,260.56,260.56,1018,94,100,7.583430000000001,9.338000000000044
423,Chase,US,1578440091,38.35,-98.35,10.550000000000011,281.48,285.15,1022,34,1,5.8162,53.6
424,Purpe,RU,1578440091,64.48,76.69,-20.559999999999974,252.59,252.59,1017,84,0,10.424420000000001,-5.007999999999953
425,Russell,US,1578440091,38.9,-98.86,10.300000000000011,281.48,284.26,1022,29,1,3.3555,51.998000000000026
426,Ifakara,TZ,1578440091,-8.13,36.68,20.75,293.9,293.9,1013,95,20,1.45405,69.35
427,Omboue,GA,1578439793,-1.57,9.26,24.54000000000002,297.69,297.69,1010,94,99,2.66203,76.17200000000004
428,Beaumont,US,1578440067,30.09,-94.1,16.310000000000002,284.82,291.15,1028,25,1,4.6977,64.4
429,Franklin,US,1578440092,35.93,-86.87,8.120000000000005,279.26,283.15,1024,42,1,10.2902,50.0
430,Kaunas,LT,1578440092,54.9,23.9,1.0,274.15,274.15,1024,86,90,5.8162,33.8
431,Megion,RU,1578440092,61.04,76.11,-17.0,256.15,256.15,1025,84,22,4.474,1.3999999999999986
432,Tazovskiy,RU,1578440092,67.47,78.7,-13.879999999999995,259.27,259.27,1013,94,95,11.78899,7.016000000000009
433,Tsarychanka,UA,1578440092,48.94,34.49,-4.560000000000002,268.59,268.59,1030,76,0,9.1717,23.791999999999994
434,Mana,NG,1578440092,13.03,5.27,19.99000000000001,293.14,293.14,1012,20,76,12.16928,67.98200000000003
435,Yoichi,JP,1578440092,43.19,140.77,-5.560000000000002,266.15,268.15,1016,85,75,8.0532,23.0
436,Grand Gaube,MU,1578440092,-20.01,57.66,25.52000000000004,298.15,299.15,1012,88,75,3.22128,78.80000000000001
437,Talnakh,RU,1578440093,69.49,88.39,-16.0,257.15,257.15,1007,84,75,24.607,3.1999999999999993
438,Portland,US,1578440093,43.66,-70.25,-1.7799999999999727,269.82,273.15,1016,68,75,5.8162,32.0
439,Waingapu,ID,1578440093,-9.65,120.26,28.560000000000002,301.71,301.71,1008,75,100,19.97641,83.40800000000002
440,Flinders,AU,1578440093,-34.58,150.85,23.05000000000001,295.93,296.48,1016,56,75,11.4087,73.99400000000009
441,Kunming,CN,1578440093,25.04,102.71,10.620000000000005,282.15,284.82,1022,100,75,8.948,53.00600000000003
442,Helong,CN,1578440093,25.94,116.13,6.6200000000000045,279.77,279.77,1026,87,0,3.6463099999999997,43.91600000000001
443,Dilla,ET,1578440093,6.41,38.31,11.010000000000048,284.16,284.16,1016,95,95,3.53446,51.81800000000008
444,Trinidad,BO,1578440094,-14.83,-64.9,24.0,297.15,297.15,1006,94,75,9.1717,75.2
445,Kamaishi,JP,1578440094,39.28,141.86,-1.0,272.15,272.15,1009,100,75,5.97279,30.2
446,Vanavara,RU,1578440094,60.35,102.28,-14.729999999999961,258.42,258.42,1022,97,95,5.167470000000001,5.486000000000068
447,Chon Daen,TH,1578440094,16.19,100.86,19.0,292.15,292.15,1013,88,20,4.16082,66.2
448,Bangolo,CI,1578440094,7.01,-7.49,20.840000000000032,293.99,293.99,1012,41,1,1.87908,69.51200000000006
449,Coquimbo,CL,1578440094,-29.95,-71.34,19.0,292.15,292.15,1014,68,0,9.1717,66.2
450,Meulaboh,ID,1578440094,4.14,96.13,26.629999999999995,299.78,299.78,1010,77,98,6.80048,79.934
451,Palana,RU,1578440095,59.08,159.95,-11.549999999999955,261.6,261.6,1008,76,94,4.76481,11.210000000000083
452,Lazaro Cardenas,MX,1578439827,28.39,-105.62,16.0,289.15,289.15,1025,17,40,12.750900000000001,60.8
453,Seymchan,RU,1578440095,62.93,152.39,-32.539999999999964,240.61,240.61,1014,92,47,0.55925,-26.57199999999994
454,Thinadhoo,MV,1578440095,0.53,72.93,28.24000000000001,301.39,301.39,1009,78,65,13.668070000000002,82.83200000000002
455,Praia da Vitoria,PT,1578440095,38.73,-27.07,19.0,292.15,292.15,1028,82,40,20.423810000000003,66.2
456,Bagotville,AU,1578440095,-28.98,153.42,28.560000000000002,301.15,302.59,1016,58,75,5.8162,84.99199999999999
457,Santa Cruz,BR,1578440095,-6.22,-36.02,23.920000000000016,297.07,297.07,1012,84,33,5.346430000000001,75.05600000000004
458,Padilla,CO,1578440096,3.23,-76.31,27.0,300.15,300.15,1013,57,20,11.4087,80.6
459,Sebastian,US,1578440096,27.82,-80.47,17.310000000000002,288.71,292.15,1021,55,20,3.3555,66.2
460,Shenjiamen,CN,1578440096,29.96,122.3,8.170000000000016,281.32,281.32,1027,78,79,26.41897,46.70600000000003
461,Dakar,SN,1578439873,14.69,-17.45,19.920000000000016,292.15,294.15,1016,64,38,11.4087,69.80000000000001
462,Apache Junction,US,1578440096,33.41,-111.55,20.680000000000007,291.48,296.15,1019,15,40,1.2527200000000003,73.4
463,Yulara,AU,1578440096,-25.24,130.99,30.0,303.15,303.15,1012,33,100,16.1064,86.0
464,Lipin Bor,RU,1578440096,60.26,37.97,1.0600000000000023,274.21,274.21,1015,98,100,7.270250000000001,33.908
465,Kyzyl-Suu,KG,1578440097,42.34,78.0,-6.079999999999984,267.07,267.07,1027,64,100,6.86759,21.056000000000026
466,Anadyr,RU,1578440097,64.73,177.51,-23.93999999999997,249.15,249.26,1020,76,90,4.474,-11.001999999999974
467,Vila Franca do Campo,PT,1578440097,37.72,-25.43,18.0,291.15,291.15,1031,93,40,11.4087,64.4
468,Ust-Karsk,RU,1578440097,52.71,118.82,-22.99999999999997,250.15,250.15,1033,97,11,2.9081,-9.399999999999949
469,Oranjemund,ZA,1578439818,-28.55,16.43,17.970000000000027,291.12,291.12,1010,79,90,3.69105,64.34600000000006
470,Magalia,US,1578440097,39.81,-121.58,10.970000000000027,282.59,285.37,1019,71,40,6.9347,53.99600000000005
471,College,US,1578440097,64.86,-147.8,-31.21999999999997,240.93,243.71,1021,67,75,1.67775,-20.991999999999948
472,Rocha,UY,1578440097,-34.48,-54.34,16.420000000000016,289.57,289.57,1009,52,0,4.63059,61.556000000000026
473,Tucuman,PE,1578440097,-17.17,-70.89,14.810000000000002,287.96,287.96,1017,75,60,7.538690000000001,58.658
474,Pouebo,NC,1578440098,-20.4,164.57,27.560000000000002,300.71,300.71,1013,58,54,2.59492,81.608
475,Cruz,BR,1578440098,-2.92,-40.18,25.08000000000004,298.23,298.23,1012,86,89,3.75816,77.14400000000008
476,Phangnga,TH,1578440098,8.45,98.53,24.420000000000016,296.15,299.15,1011,78,20,8.0532,78.80000000000001
477,Goma,CD,1578440098,-1.67,29.23,12.54000000000002,285.69,285.69,1014,95,97,0.49214,54.57200000000004
478,Kenora,CA,1578439815,49.76,-94.48,-18.95999999999998,254.15,254.26,1018,64,75,10.2902,-2.001999999999974
479,Karratha,AU,1578440098,-20.74,116.85,29.560000000000002,302.71,302.71,1001,70,100,14.40628,85.208
480,Burnie,AU,1578440065,-41.05,145.91,21.110000000000014,293.71,294.82,1022,53,63,4.004230000000001,71.00600000000003
481,Pisco,PE,1578439921,-13.71,-76.2,21.810000000000002,294.82,295.15,1012,30,12,18.3434,71.6
482,Verkhoyansk,RU,1578440099,67.55,133.39,-29.349999999999966,243.8,243.8,1013,85,84,1.45405,-20.82999999999994
483,Amapa,HN,1578440099,15.09,-87.97,23.010000000000048,295.37,297.15,1018,88,90,2.237,75.2
484,Les Cayes,HT,1578440099,18.19,-73.75,27.24000000000001,300.39,300.39,1017,62,0,3.55683,81.03200000000001
485,Sudbury,CA,1578439962,46.49,-80.99,-3.4799999999999613,269.26,270.15,1003,100,75,6.9347,26.6
486,Copiapo,CL,1578439820,-27.37,-70.33,21.0,294.15,294.15,1015,60,0,11.4087,69.80000000000001
487,Ca Mau,VN,1578440100,9.18,105.15,24.890000000000043,298.04,298.04,1011,82,67,6.464930000000001,76.80200000000008
488,Ossora,RU,1578440100,59.24,163.07,-5.139999999999986,268.01,268.01,1009,82,100,11.49818,22.748000000000026
489,Fort Nelson,CA,1578440100,58.81,-122.69,-28.99999999999997,244.15,244.15,1018,68,20,2.237,-20.199999999999953
490,Ponta Delgada,PT,1578439823,37.73,-25.67,18.0,291.15,291.15,1031,93,40,10.2902,64.4
491,Porto Novo,BR,1578440100,-23.68,-45.44,24.0,297.15,297.15,1013,78,75,3.3555,75.2
492,Veraval,FR,1578440101,49.65,0.71,11.720000000000027,284.15,285.93,1025,100,90,11.4087,55.004000000000055
493,Nacala,MZ,1578440101,-14.56,40.69,24.28000000000003,297.43,297.43,1009,97,91,2.75151,75.70400000000006
494,Ahipara,NZ,1578440101,-35.17,173.16,22.78000000000003,295.93,295.93,1017,66,1,4.004230000000001,73.00400000000005
495,Alofi,NU,1578440101,-19.06,-169.92,27.700000000000045,300.85,300.85,1012,78,100,7.87424,81.86000000000008
496,Jiayuguan,CN,1578440101,39.77,98.29,-9.42999999999995,263.72,263.72,1028,69,85,5.77146,15.026000000000089
497,Manyana,AU,1578440101,-35.26,150.51,22.610000000000014,293.15,297.59,1016,56,75,11.4087,75.99199999999999
498,Ust-Ilimsk,RU,1578440101,57.96,102.73,-10.149999999999977,263.0,263.0,1025,95,93,5.65961,13.73000000000004
499,Huancabamba,PE,1578440101,-5.24,-79.45,12.0,285.15,285.15,1012,98,94,1.99093,53.6
500,Kroya,ID,1578440102,-6.5,108.06,26.33000000000004,299.48,299.48,1009,78,67,0.96191,79.39400000000008
501,Ketchikan,US,1578439984,55.34,-131.65,-4.069999999999993,269.08,269.08,1008,58,100,2.93047,24.674000000000014
502,Mitsamiouli,KM,1578440102,-11.38,43.28,28.200000000000045,301.35,301.35,1010,72,36,1.8119700000000003,82.76000000000008
503,Lorengau,PG,1578440102,-2.02,147.27,25.80000000000001,298.95,298.95,1009,92,100,11.6324,78.44000000000003
504,Huaral,PE,1578440102,-11.5,-77.21,24.0,297.15,297.15,1013,73,20,13.8694,75.2
505,Xam Nua,LA,1578440102,20.42,104.04,12.710000000000036,285.86,285.86,1017,99,6,2.93047,54.87800000000007
506,Ranfurly,CA,1578440102,53.41,-111.68,-18.029999999999973,255.12,255.12,1023,95,92,10.80471,-0.4539999999999509
507,Yicheng,CN,1578440103,31.71,112.27,4.4500000000000455,277.6,277.6,1030,82,94,2.28174,40.01000000000008
508,Miquelon,PM,1578440103,47.1,-56.38,-1.089999999999975,272.04,272.15,1015,92,75,17.2249,30.2
509,Berlevag,NO,1578440103,70.86,29.09,2.0,275.15,275.15,985,87,75,13.8694,35.6
510,Phuket,TH,1578439826,7.89,98.4,24.340000000000032,296.15,299.15,1011,78,20,8.0532,78.80000000000001
511,Camopi,GF,1578440103,3.17,-52.33,22.480000000000018,295.63,295.63,1013,99,84,3.10943,72.46400000000003
512,Oksfjord,NO,1578440103,70.24,22.35,-0.21999999999997044,270.93,276.15,984,85,58,20.804100000000002,37.4
513,Mpulungu,ZM,1578440103,-8.77,31.12,16.930000000000007,290.08,290.08,1013,92,100,2.05804,62.47400000000002
514,Ixtapa,MX,1578440103,20.71,-105.21,26.27000000000004,298.71,300.15,1013,57,40,8.0532,80.6
515,Puerto El Triunfo,SV,1578440103,13.27,-88.55,30.49000000000001,303.15,304.15,1011,55,20,4.6977,87.80000000000001
516,Moose Factory,CA,1578440104,51.26,-80.61,-9.0,264.15,264.15,1003,78,90,11.4087,15.8
517,Miles City,US,1578440104,46.41,-105.84,-1.1299999999999955,271.15,272.59,1018,92,90,5.8162,30.991999999999997
518,Padang,ID,1578440104,-0.92,100.36,20.74000000000001,293.89,293.89,1010,86,98,6.15175,69.33200000000002
519,Liverpool,GB,1578440104,53.41,-2.98,11.939999999999998,283.71,286.48,1012,82,40,10.2902,55.99400000000007
520,Greeley,US,1578439832,41.55,-98.53,4.050000000000011,276.15,278.15,1022,69,1,4.6977,41.0
521,Dudinka,RU,1578440104,69.41,86.18,-16.0,257.15,257.15,1007,84,75,24.607,3.1999999999999993
522,Atar,MR,1578439808,20.52,-13.05,10.200000000000045,283.35,283.35,1019,15,5,9.52962,50.360000000000085
523,Menongue,AO,1578440104,-14.66,17.68,18.02000000000004,291.17,291.17,1013,91,92,5.167470000000001,64.43600000000006
524,Kirovsk,RU,1578440105,67.62,33.66,-0.08999999999997499,273.06,273.06,995,95,98,7.247880000000001,31.838000000000044
525,Kpandae,GH,1578440105,8.46,-0.01,27.480000000000018,300.63,300.63,1009,32,15,0.93954,81.46400000000003
526,Kanlagay,PH,1578440105,5.88,121.29,27.78000000000003,300.93,300.93,1010,73,83,6.554410000000001,82.00400000000005
527,Mokhsogollokh,RU,1578440105,61.4,128.95,-14.939999999999998,258.21,258.21,1014,95,96,2.70677,5.108000000000004
528,Skjervoy,NO,1578440105,70.03,20.97,2.75,275.9,275.9,978,68,100,22.97399,36.95
529,Jiuquan,CN,1578440105,39.73,98.49,-9.799999999999955,263.35,263.35,1028,50,82,2.43833,14.360000000000081
530,Hastings,NZ,1578440105,-39.64,176.84,14.200000000000045,287.35,287.35,1015,68,0,14.38391,57.56000000000009
531,Nyandoma,RU,1578440106,61.67,40.21,-0.9199999999999591,272.23,272.23,1014,96,100,8.41112,30.344000000000072
532,Rio Verde de Mato Grosso,BR,1578440106,-18.92,-54.84,24.470000000000027,297.62,297.62,1008,87,81,4.83192,76.04600000000005
533,Nortelandia,BR,1578440106,-14.45,-56.8,23.460000000000036,296.61,296.61,1010,93,100,5.055619999999999,74.22800000000007
534,Si Bun Ruang,TH,1578440106,16.97,102.28,19.910000000000025,293.06,293.06,1014,70,29,1.74486,67.83800000000005
535,Banda Aceh,ID,1578440106,5.56,95.32,21.74000000000001,294.89,294.89,1010,88,80,6.0399,71.13200000000002
536,Acajutla,SV,1578440106,13.59,-89.83,25.620000000000005,297.59,300.15,1019,47,20,5.8162,80.6
537,Hokitika,NZ,1578439916,-42.72,170.96,14.640000000000043,287.79,287.79,1015,72,84,11.54292,58.352000000000075
538,Iquique,CL,1578439996,-20.22,-70.14,25.0,298.15,298.15,1012,53,0,17.2249,77.0
539,Isabela,PH,1578440107,10.2,122.99,23.170000000000016,296.32,296.32,1012,82,90,11.185,73.70600000000003
540,Alta Floresta,BR,1578440107,-9.87,-56.08,23.170000000000016,296.32,296.32,1011,93,26,2.48307,73.70600000000003
541,Cockburn Town,TC,1578440107,21.46,-71.14,25.689999999999998,298.84,298.84,1018,80,16,14.697090000000001,78.24199999999999
542,Macedo de Cavaleiros,PT,1578440107,41.54,-6.96,-2.2199999999999704,270.93,270.93,1025,99,65,1.29746,28.004000000000055
543,Viedma,AR,1578440107,-40.81,-62.99,27.189999999999998,300.34,300.34,995,16,0,11.654770000000001,80.94200000000001
544,Voh,NC,1578440107,-20.95,164.69,26.02000000000004,299.17,299.17,1013,69,64,11.296850000000001,78.83600000000007
545,Manzanillo,MX,1578440107,19.05,-104.32,29.0,302.15,302.15,1012,66,5,6.9347,84.2
546,Pangnirtung,CA,1578440108,66.15,-65.72,-34.99999999999997,238.15,238.15,996,43,20,3.3555,-30.99999999999995
547,Road Town,VG,1578440102,18.42,-64.62,25.600000000000023,298.15,299.15,1017,78,40,6.9347,78.80000000000001
548,La Ronge,CA,1578440108,55.1,-105.3,-24.99999999999997,248.15,248.15,1025,69,5,1.74486,-12.99999999999995
549,Kenai,US,1578440108,60.55,-151.26,-19.919999999999987,252.15,254.82,1016,83,1,4.6977,-0.9939999999999714
550,Plouzane,FR,1578440108,48.38,-4.62,12.0,285.15,285.15,1024,100,90,18.3434,53.6
551,Badarwas,IN,1578440108,24.97,77.57,14.140000000000043,287.29,287.29,1011,74,27,3.91475,57.45200000000008
552,Timbiqui,CO,1578440108,2.77,-77.67,24.090000000000032,297.24,297.24,1012,89,1,1.38694,75.36200000000005
553,La Troncal,EC,1578440109,-2.42,-79.34,23.860000000000014,289.15,301.15,1023,82,75,9.1717,82.4
554,Dukat,AL,1578440109,40.25,19.57,3.9500000000000455,275.37,278.71,1025,27,0,1.99093,42.008
555,Hobyo,SO,1578440109,5.35,48.53,24.810000000000002,297.96,297.96,1012,80,92,13.847030000000002,76.65800000000002
556,Samarai,PG,1578440109,-10.62,150.67,30.090000000000032,303.24,303.24,1008,62,100,5.45828,86.16200000000006
557,Ostersund,SE,1578440109,63.18,14.64,3.910000000000025,275.93,278.15,987,78,100,14.987900000000002,41.0
558,Labuhan,ID,1578440109,-2.54,115.51,25.54000000000002,298.69,298.69,1010,77,100,0.2237,77.97200000000004
559,Llangefni,GB,1578440109,53.26,-4.31,10.990000000000009,282.04,285.37,1014,93,86,19.4619,53.99600000000005
