,City,Country,Date,Latitude,Longitude,Temp,Temp Min,Temp Max,Pressure,Humidity,Clouds,Wind Speed,Max F
0,Kearney,US,1578152171,40.7,-99.08,-2.8100000000000023,269.15,271.48,1021,73,1,11.4087,28.994000000000074
1,Nome,US,1578152114,30.04,-94.42,10.939999999999998,282.59,285.15,1028,66,1,4.6977,53.6
2,Port Alfred,ZA,1578152316,-33.59,26.89,22.78000000000003,295.93,295.93,1006,98,93,11.90084,73.00400000000005
3,Bluff,AU,1578151827,-23.58,149.07,20.600000000000023,293.75,293.75,1014,81,0,8.097940000000001,69.08000000000004
4,Vranestica,MK,1578152316,41.45,21.03,3.0,276.15,276.15,1018,64,100,3.3555,37.4
5,Houston,US,1578151873,29.76,-95.37,9.54000000000002,279.82,285.37,1028,57,1,5.480650000000001,53.99600000000005
6,Altamira,BR,1578152316,-3.2,-52.21,30.670000000000016,303.82,303.82,1013,57,75,4.85429,87.20600000000003
7,Busselton,AU,1578151828,-33.64,115.35,13.700000000000045,285.37,288.15,1010,38,0,16.62091,59.0
8,Pangnirtung,CA,1578152121,66.15,-65.72,-17.0,256.15,256.15,1000,64,90,9.1717,1.3999999999999986
9,Thompson,CA,1578152088,55.74,-97.86,-17.99999999999997,255.15,255.15,1016,77,90,2.237,-0.39999999999994884
10,Pacific Grove,US,1578152300,36.62,-121.92,8.930000000000007,279.82,284.82,1028,81,90,4.6977,53.00600000000003
11,Barcelos,BR,1578152317,-0.97,-62.93,31.30000000000001,304.45,304.45,1013,50,0,4.9214,88.34000000000003
12,Leirvik,NO,1578152317,59.78,5.5,2.2800000000000296,274.26,277.15,1021,69,40,11.4087,39.2
13,Upernavik,GL,1578152082,72.79,-56.15,-36.369999999999976,236.78,236.78,1000,97,83,14.540500000000002,-33.465999999999966
14,Tabas,IR,1578152317,33.6,56.92,11.0,284.15,284.15,1013,57,100,2.237,51.8
15,Nikolayevka,RU,1578152317,46.73,38.57,2.8000000000000114,275.95,275.95,1015,63,0,5.301690000000001,37.04000000000002
16,Tromso,NO,1578152120,69.65,18.96,-5.0,268.15,268.15,996,85,40,3.3555,23.0
17,Punta Arenas,CL,1578152317,-53.16,-70.91,12.120000000000005,284.15,286.15,1008,50,75,14.987900000000002,55.400000000000006
18,Sosnovoborsk,RU,1578152318,56.12,93.34,-6.0,267.15,267.15,1021,73,40,11.185,21.2
19,Hermanus,ZA,1578151645,-34.42,19.24,22.360000000000014,294.26,296.48,1005,81,0,4.004230000000001,73.99400000000009
20,Ternate,PH,1578152318,14.29,120.72,25.200000000000045,298.15,298.71,1014,88,90,8.0532,78.00800000000001
21,Georgetown,GY,1578152125,6.8,-58.16,28.53000000000003,301.15,302.15,1017,74,40,11.4087,84.2
22,Provideniya,RU,1578152074,64.42,-173.23,-25.529999999999973,247.62,247.62,1018,77,0,8.7243,-13.95399999999995
23,Lata,IN,1578152102,30.78,78.62,-15.579999999999984,257.57,257.57,1022,99,100,1.87908,3.956000000000028
24,Salalah,OM,1578152107,17.01,54.1,25.0,298.15,298.15,1015,73,20,5.8162,77.0
25,Jumla,NP,1578152318,29.28,82.18,-3.3999999999999773,269.75,269.75,1022,95,100,4.07134,25.88000000000004
26,Cherskiy,RU,1578151832,68.75,161.3,-19.329999999999984,253.82,253.82,1024,59,19,7.359730000000001,-2.7939999999999756
27,Itarema,BR,1578152084,-2.92,-39.92,32.610000000000014,305.76,305.76,1011,51,33,12.88512,90.69800000000004
28,Bredasdorp,ZA,1578152068,-34.53,20.04,22.58000000000004,294.26,298.15,1008,57,0,10.2902,77.0
29,Albany,US,1578151829,42.65,-73.75,3.6899999999999977,275.15,278.71,1005,93,90,6.9347,42.008
30,Auki,NG,1578152319,12.18,6.51,26.220000000000027,299.37,299.37,1012,15,65,15.8827,79.19600000000005
31,Nantucket,US,1578152080,41.28,-70.1,6.930000000000007,278.71,281.15,1007,93,90,4.6977,46.4
32,Castro,CL,1578152071,-42.48,-73.76,15.0,288.15,288.15,1023,67,75,8.0532,59.0
33,Dauphin,CA,1578152136,51.15,-100.04,-8.0,265.15,265.15,1009,100,75,6.9347,17.6
34,Baruun-Urt,MN,1578152319,46.68,113.28,-13.579999999999984,259.57,259.57,1032,78,0,8.366380000000001,7.556000000000029
35,Havre-Saint-Pierre,CA,1578152319,50.23,-63.6,-7.0,266.15,266.15,1002,85,20,4.65296,19.4
36,Ngaoundere,CM,1578152319,7.32,13.58,28.0,301.15,301.15,1015,39,0,6.9347,82.4
37,Abu Samrah,SY,1578152319,35.3,37.18,10.379999999999995,283.53,283.53,1012,80,100,16.86698,50.684
38,Faya,SA,1578152320,18.39,42.45,17.510000000000048,290.15,291.15,1024,77,40,8.0532,64.4
39,Leningradskiy,RU,1578152092,69.38,178.42,-22.159999999999968,250.99,250.99,1027,64,99,2.77388,-7.887999999999941
40,Strezhevoy,RU,1578152320,60.73,77.6,-7.0,266.15,266.15,999,85,90,11.185,19.4
41,Taoudenni,ML,1578152320,22.68,-3.98,23.230000000000018,296.38,296.38,1021,13,95,10.08887,73.81400000000004
42,Puerto Ayora,EC,1578152320,-0.74,-90.35,26.77000000000004,298.71,301.15,1016,65,40,12.750900000000001,82.4
43,Dapaong,TG,1578152320,10.86,0.2,30.210000000000036,303.36,303.36,1011,11,0,9.52962,86.37800000000007
44,Tselinnoye,UA,1578152320,45.9,34.18,6.260000000000048,279.41,279.41,1013,77,97,8.03083,43.268000000000086
45,Mar del Plata,AR,1578152320,-46.43,-67.52,18.660000000000025,291.81,291.81,1013,31,65,10.7376,65.58800000000005
46,Malkangiri,IN,1578152320,18.35,81.9,21.620000000000005,294.77,294.77,1014,83,0,2.86336,70.91600000000001
47,Pisco,PE,1578152087,-13.71,-76.2,23.03000000000003,295.15,297.04,1016,30,20,8.0532,75.00200000000008
48,Atuona,PF,1578151824,-9.8,-139.03,27.010000000000048,300.16,300.16,1013,73,25,13.757550000000002,80.61800000000008
49,Sunnyside,CA,1578152321,47.86,-53.92,0.5600000000000023,273.71,273.71,1001,92,83,6.196490000000001,33.008
50,Butaritari,KI,1578151824,3.07,172.79,28.900000000000034,302.05,302.05,1006,79,100,14.38391,84.02000000000007
51,Tuktoyaktuk,CA,1578152089,69.44,-133.03,-30.99999999999997,242.15,242.15,1022,67,40,11.4087,-23.799999999999947
52,Exeter,GB,1578152131,50.73,-3.53,8.470000000000027,280.37,282.59,1035,87,95,5.8162,48.992
53,Nikolskoye,RU,1578151826,59.7,30.79,0.8900000000000432,273.71,274.26,986,86,100,13.422,33.998000000000026
54,Vaini,IN,1578151826,15.34,74.49,21.150000000000034,292.15,297.15,1017,57,0,3.3555,75.2
55,Uruacu,BR,1578152321,-14.52,-49.14,22.110000000000014,295.26,295.26,1012,96,100,7.94135,71.79800000000003
56,Cape Town,ZA,1578152302,-33.93,18.42,23.57000000000005,293.71,299.26,1010,60,0,13.8694,78.99800000000002
57,Ushuaia,AR,1578151756,-54.81,-68.31,12.0,285.15,285.15,1006,50,40,10.2902,53.6
58,Barrow,AR,1578151824,-38.31,-60.23,29.960000000000036,303.11,303.11,1012,38,64,12.41535,85.92800000000007
59,Deputatskiy,RU,1578152322,69.3,139.9,-23.859999999999985,249.29,249.29,1019,84,79,0.35792,-10.947999999999972
60,New Norfolk,AU,1578152322,-42.78,147.06,11.930000000000007,284.26,286.15,1017,37,100,6.9347,55.400000000000006
61,Beitbridge,ZA,1578152322,-22.21,29.99,37.860000000000014,311.01,311.01,1006,16,0,15.055010000000001,100.14800000000002
62,Morant Bay,JM,1578152322,17.88,-76.41,28.620000000000005,301.48,302.15,1019,62,20,6.9347,84.2
63,Arraial do Cabo,BR,1578152322,-22.97,-42.02,28.660000000000025,301.15,302.15,1009,69,20,13.8694,84.2
64,Kapaa,US,1578151831,22.08,-159.32,22.54000000000002,294.15,297.15,1023,83,75,19.4619,75.2
65,Batagay-Alyta,RU,1578152322,67.8,130.41,-30.45999999999998,242.69,242.69,1020,88,0,3.8029,-22.827999999999967
66,Tura,RU,1578152067,64.27,100.22,-20.039999999999964,253.11,253.11,1013,97,100,6.77811,-4.071999999999939
67,Kruisfontein,ZA,1578152073,-34.0,24.73,25.04000000000002,298.19,298.19,1006,77,9,15.905070000000002,77.07200000000003
68,Qaanaaq,GL,1578152067,77.48,-69.36,-40.89999999999998,232.25,232.25,1006,90,27,5.5925,-41.61999999999996
69,Nortelandia,BR,1578152323,-14.45,-56.8,29.420000000000016,302.57,302.57,1011,66,87,5.92805,84.95600000000003
70,Vila,IT,1578152323,45.18,8.4,9.720000000000027,279.26,286.15,1022,66,1,5.8162,55.400000000000006
71,Narsaq,GL,1578152102,60.91,-46.05,0.0,273.15,273.15,984,96,75,2.237,32.0
72,Pevek,RU,1578152121,69.7,170.27,-20.399999999999977,252.75,252.75,1026,66,0,5.525390000000001,-4.719999999999963
73,Yeppoon,AU,1578152323,-23.13,150.74,23.0,296.15,296.15,1013,69,43,5.8162,73.4
74,Sistranda,NO,1578152323,63.73,8.83,3.32000000000005,275.93,277.15,1012,60,75,23.041100000000004,39.2
75,Ponta do Sol,BR,1578152323,-20.63,-46.0,25.450000000000045,298.6,298.6,1009,75,67,5.41354,77.81000000000009
76,Hilo,US,1578151831,19.71,-155.08,17.450000000000045,280.93,294.15,1022,77,90,4.6977,69.80000000000001
77,Yellowknife,CA,1578151828,62.45,-114.38,-16.0,257.15,257.15,1005,84,90,11.4087,3.1999999999999993
78,Darab,IR,1578152324,28.75,54.55,11.379999999999995,284.53,284.53,1016,89,100,4.54111,52.483999999999995
79,Dalvik,SE,1578152324,57.79,14.13,1.8000000000000114,274.15,275.37,1009,59,0,13.8694,35.99600000000005
80,Maragogi,BR,1578152133,-9.01,-35.22,26.450000000000045,299.6,299.6,1013,76,100,13.15356,79.61000000000008
81,Ilulissat,GL,1578151828,69.22,-51.1,-8.0,265.15,265.15,990,78,75,16.1064,17.6
82,Inirida,CO,1578152071,3.87,-67.92,30.390000000000043,303.54,303.54,1015,55,20,3.8029,86.70200000000008
83,Teguldet,RU,1578152324,57.31,88.17,-12.129999999999995,261.02,261.02,1020,87,97,10.71523,10.166000000000007
84,Victoria,BN,1578152068,5.28,115.24,27.879999999999995,300.93,301.15,1010,78,75,8.0532,82.4
85,Manaus,BR,1578152324,-3.13,-59.98,30.0,303.15,303.15,1014,74,75,2.237,86.0
86,College,US,1578152070,64.86,-147.8,-35.059999999999974,236.15,244.82,1007,73,0,3.37787,-18.99399999999997
87,Jamestown,AU,1578151689,-33.21,138.6,15.090000000000032,288.24,288.24,1018,44,100,16.46432,59.16200000000006
88,Bagru,IN,1578152325,26.81,75.54,15.0,288.15,288.15,1018,82,33,4.67533,59.0
89,Hobart,AU,1578151660,-42.88,147.33,12.080000000000041,284.26,286.15,1017,37,100,6.9347,55.400000000000006
90,Ribeira Grande,PT,1578152325,38.52,-28.7,18.0,291.15,291.15,1025,93,40,17.2249,64.4
91,Chulman,RU,1578152325,56.84,124.9,-17.839999999999975,255.31,255.31,1021,98,97,3.10943,-0.11199999999995924
92,Samana,EC,1578152325,0.12,-76.97,29.0,302.15,302.15,1017,70,86,2.237,84.2
93,Kavieng,PG,1578152094,-2.57,150.8,29.560000000000002,302.71,302.71,1006,66,84,3.5792,85.208
94,Rikitea,PF,1578151825,-23.12,-134.97,25.600000000000023,298.75,298.75,1017,78,100,14.11547,78.08000000000004
95,Mataura,NZ,1578151640,-46.19,168.86,8.330000000000041,281.48,281.48,1001,90,100,1.99093,46.99400000000007
96,Conway,US,1578152325,35.09,-92.44,6.300000000000011,278.71,280.37,1025,45,1,11.4087,44.99600000000005
97,Oranjemund,ZA,1578152108,-28.55,16.43,21.110000000000014,294.26,294.26,1010,61,0,17.71704,69.99800000000002
98,Luderitz,NA,1578151830,-26.65,15.16,16.930000000000007,290.08,290.08,1010,88,0,21.90023,62.47400000000002
99,Carnarvon,ZA,1578152083,-30.97,22.13,35.170000000000016,308.32,308.32,1003,3,0,24.31619,95.30600000000004
100,Airai,TL,1578151832,-8.93,125.41,20.510000000000048,293.66,293.66,1007,79,94,4.89903,68.91800000000009
101,Thunder Bay,CA,1578152326,48.41,-89.26,-5.479999999999961,267.15,268.15,1014,85,75,8.0532,23.0
102,Makakilo City,US,1578152150,21.35,-158.09,22.629999999999995,294.15,297.04,1022,94,90,3.3555,75.00200000000008
103,Benguela,AO,1578152087,-12.58,13.4,28.0,301.15,301.15,1011,74,75,11.4087,82.4
104,Zakamensk,RU,1578152326,50.38,103.29,-16.289999999999964,256.86,256.86,1029,87,100,2.237,2.6780000000000648
105,Pitimbu,BR,1578152326,-7.47,-34.81,31.0,304.15,304.15,1013,55,40,9.1717,87.80000000000001
106,Aklavik,CA,1578151824,68.22,-135.01,-29.72999999999999,242.15,245.15,1022,68,40,9.1717,-18.39999999999995
107,Kenai,US,1578152327,60.55,-151.26,-23.339999999999975,247.15,254.82,999,83,1,4.6977,-0.9939999999999714
108,Weston,US,1578152327,41.2,-73.38,7.5400000000000205,279.26,282.15,1004,100,90,2.93047,48.2
109,Victoria Point,AU,1578152327,-27.58,153.3,22.450000000000045,292.59,298.15,1014,78,40,6.9347,77.0
110,Lakselv,NO,1578152327,70.05,24.96,-4.649999999999977,267.15,269.26,991,92,75,28.857300000000002,24.998000000000026
111,Mandal,MN,1578152327,48.82,106.5,-12.019999999999982,261.13,261.13,1027,67,100,0.35792,10.364000000000033
112,Matamoros,US,1578152328,25.87,-97.51,14.07000000000005,285.15,288.71,1030,50,1,4.6977,60.00800000000001
113,Devarkonda,IN,1578152328,16.69,78.91,22.760000000000048,295.91,295.91,1013,86,15,4.83192,72.96800000000009
114,Snegiri,RU,1578152328,55.89,37.04,-0.6999999999999886,272.04,273.71,997,86,90,11.185,33.008
115,Katsuura,JP,1578152111,33.93,134.5,8.200000000000045,280.93,282.15,1020,66,40,17.2249,48.2
116,Charters Towers,AU,1578152328,-20.07,146.27,21.33000000000004,294.48,294.48,1012,82,0,6.643890000000001,70.39400000000008
117,Souillac,FR,1578151825,45.6,-0.6,9.200000000000045,281.15,283.71,1037,66,1,6.9347,51.00800000000001
118,Yulara,AU,1578152107,-25.24,130.99,18.0,291.15,291.15,1015,93,90,9.1717,64.4
119,Manihari,IN,1578152328,25.34,87.62,19.110000000000014,292.26,292.26,1015,61,59,1.5435299999999998,66.39800000000002
120,Port Elizabeth,US,1578152328,39.31,-74.98,12.460000000000036,282.59,288.15,1005,93,90,4.6977,59.0
121,Constitucion,MX,1578152096,23.99,-104.67,1.7000000000000455,273.15,276.48,1036,54,5,2.237,37.99400000000007
122,Maceio,BR,1578152329,-9.67,-35.74,32.0,305.15,305.15,1013,49,40,14.987900000000002,89.6
123,Mahebourg,MU,1578152088,-20.41,57.7,25.230000000000018,297.15,299.26,1012,100,75,9.73095,78.99800000000002
124,Nagar,IN,1578152329,27.42,77.1,13.510000000000048,286.66,286.66,1018,58,0,3.1318,56.31800000000008
125,Tessalit,ML,1578152329,20.2,1.01,22.610000000000014,295.76,295.76,1019,14,0,15.56952,72.69800000000004
126,Lagoa,PT,1578152096,37.14,-8.45,15.240000000000009,287.15,290.37,1029,71,0,6.9347,62.99600000000005
127,Manchester,US,1578151657,43.0,-71.45,3.3600000000000136,274.15,279.26,1006,93,90,2.5278099999999997,42.998000000000026
128,Shahr-e Babak,IR,1578152329,30.12,55.12,9.850000000000023,283.0,283.0,1014,76,100,19.93167,49.73000000000005
129,Torbay,CA,1578152075,47.66,-52.73,0.660000000000025,273.15,274.82,1000,90,90,11.4087,35.00600000000003
130,Okhotsk,RU,1578152121,59.36,143.24,-7.599999999999966,265.55,265.55,1013,87,100,10.26783,18.32000000000006
131,Wanning,AT,1578152330,48.64,13.53,2.840000000000032,273.15,277.59,1027,79,75,17.2249,39.992
132,Nelson Bay,AU,1578152330,-32.72,152.14,22.78000000000003,295.93,295.93,1009,83,0,15.01027,73.00400000000005
133,Touros,BR,1578152100,-5.2,-35.46,31.0,304.15,304.15,1012,55,75,12.750900000000001,87.80000000000001
134,Port Macquarie,AU,1578152330,-31.43,152.91,20.939999999999998,292.59,296.15,1008,69,0,17.47097,73.4
135,Hay River,CA,1578152330,60.82,-115.79,-15.0,258.15,258.15,999,92,90,18.3434,5.0
136,Tiznit,MA,1578152120,29.7,-9.73,16.33000000000004,289.48,289.48,1026,24,0,6.35308,61.39400000000008
137,Dire Dawa,ET,1578152330,9.59,41.86,21.25,294.4,294.4,1011,41,83,9.59673,70.25
138,Geraldton,CA,1578152069,49.72,-86.95,-10.0,263.15,263.15,1011,92,90,4.6977,14.0
139,Cabo San Lucas,MX,1578152115,22.89,-109.91,16.220000000000027,286.48,290.93,1023,54,5,9.1717,64.00400000000005
140,Hasaki,JP,1578152086,35.73,140.83,2.2100000000000364,274.82,276.15,1014,86,75,23.041100000000004,37.4
141,Bandarbeyla,SO,1578152085,9.49,50.81,25.590000000000032,298.74,298.74,1013,79,11,14.74183,78.06200000000007
142,Whitehorse,CA,1578152331,60.72,-135.06,-18.45999999999998,252.04,256.15,994,77,90,3.3555,1.3999999999999986
143,Tasiilaq,GL,1578151832,65.61,-37.64,-4.0,269.15,269.15,978,92,100,12.750900000000001,24.8
144,Lavrentiya,RU,1578152133,65.58,-170.99,-25.649999999999977,247.5,247.5,1018,92,0,11.27448,-14.169999999999959
145,Luanda,AO,1578151803,-8.83,13.24,25.0,298.15,298.15,1010,88,75,5.8162,77.0
146,Avarua,CK,1578151682,-21.21,-159.78,24.0,297.15,297.15,1014,94,41,3.3555,75.2
147,Portland,US,1578152110,43.66,-70.25,2.6899999999999977,273.71,278.15,1008,75,90,4.6977,41.0
148,Bela,PK,1578152331,26.23,66.31,19.629999999999995,292.78,292.78,1016,66,0,6.196490000000001,67.334
149,Mangan,IN,1578152331,27.5,88.54,1.0100000000000477,274.16,274.16,1016,96,100,3.87001,33.81800000000008
150,Fallon,US,1578152332,46.84,-105.12,-0.1099999999999568,272.04,274.15,1007,74,20,11.4087,33.8
151,Daru,PG,1578152332,-9.07,143.21,24.610000000000014,297.76,297.76,1006,78,100,2.19226,76.29800000000003
152,Onguday,RU,1578152332,50.75,86.14,-13.259999999999991,259.89,259.89,1031,89,100,4.63059,8.132000000000016
153,Juegang,CN,1578152332,32.31,121.18,7.4500000000000455,279.82,281.48,1024,85,1,6.73337,46.99400000000007
154,Kalangala,UG,1578152332,-0.32,32.29,27.0,300.15,300.15,1016,65,20,10.2902,80.6
155,Saskylakh,RU,1578152087,71.97,114.09,-30.079999999999984,243.07,243.07,1007,96,94,6.420190000000001,-22.14399999999997
156,Vestmanna,FO,1578152073,62.16,-7.17,1.0,274.15,274.15,1015,98,100,17.2249,33.8
157,Vostok,RU,1578151831,46.45,135.83,-23.68999999999997,249.46,249.46,1023,97,92,5.10036,-10.641999999999946
158,Berlevag,NO,1578152332,70.86,29.09,-3.8700000000000045,269.28,269.28,984,79,100,36.463100000000004,25.033999999999992
159,Moree,AU,1578152332,-29.46,149.84,31.0,304.15,304.15,1011,22,0,11.4087,87.80000000000001
160,Chaman,AF,1578152333,30.92,66.46,6.990000000000009,280.14,280.14,1018,78,100,1.83434,44.582000000000015
161,Alofi,NU,1578152099,-19.06,-169.92,23.0,296.15,296.15,1011,94,0,5.8162,73.4
162,Mogadishu,SO,1578152152,2.04,45.34,28.0,301.15,301.15,1008,69,20,17.2249,82.4
163,Kavaratti,IN,1578152088,10.57,72.64,27.370000000000005,300.52,300.52,1012,73,100,13.77992,81.26600000000002
164,Miragoane,HT,1578152333,18.44,-73.09,25.82000000000005,298.97,298.97,1020,71,7,3.71342,78.47600000000008
165,Basco,US,1578152333,40.33,-91.2,0.57000000000005,272.59,274.26,1019,81,90,17.2249,33.998000000000026
166,Kaitangata,NZ,1578152076,-46.28,169.85,9.07000000000005,282.22,282.22,1003,78,100,11.90084,48.32600000000009
167,Bumba,CD,1578152333,2.18,22.47,32.51000000000005,305.66,305.66,1006,32,35,1.45405,90.51800000000009
168,Nanortalik,GL,1578152074,60.14,-45.24,-0.6899999999999977,272.46,272.46,986,97,100,8.29927,30.758000000000003
169,Longyearbyen,NO,1578152135,78.22,15.63,-15.0,258.15,258.15,991,65,20,10.2902,5.0
170,Kurilsk,RU,1578152127,45.23,147.88,-8.039999999999964,265.11,265.11,1009,78,91,12.818010000000001,17.528000000000063
171,Vao,EE,1578152070,59.1,26.19,0.82000000000005,273.97,273.97,991,82,89,12.012690000000001,33.47600000000009
172,Avila,US,1578152334,38.91,-76.61,12.020000000000039,282.15,287.59,1005,100,90,10.223090000000001,57.992
173,Vilhena,BR,1578152334,-12.74,-60.15,25.0,298.15,298.15,1016,83,75,10.2902,77.0
174,Guarumal,EC,1578152334,-1.88,-79.65,27.860000000000014,299.82,302.04,1015,61,75,4.6977,84.00200000000008
175,Ahipara,NZ,1578152090,-35.17,173.16,15.0,288.15,288.15,1012,96,75,18.052590000000002,59.0
176,Verkhnevilyuysk,RU,1578152334,63.45,120.31,-28.349999999999966,244.8,244.8,1017,98,96,3.6463099999999997,-19.029999999999937
177,Mawlaik,MM,1578152335,23.63,94.42,16.470000000000027,289.62,289.62,1015,97,54,0.6263600000000001,61.64600000000005
178,Lourdes,SV,1578152335,13.73,-89.37,26.870000000000005,297.59,302.15,1017,62,49,3.3555,84.2
179,Mayya,RU,1578152335,61.74,130.28,-36.99999999999997,236.15,236.15,1017,65,93,4.474,-34.59999999999995
180,Bethel,US,1578151835,60.79,-161.76,-25.649999999999977,247.15,248.15,1010,83,1,5.8162,-12.99999999999995
181,Yabelo,ET,1578152335,4.89,38.09,25.400000000000034,298.55,298.55,1010,38,84,11.140260000000001,77.72000000000006
182,Etchojoa,MX,1578152335,26.91,-109.62,10.0,283.15,283.15,1023,71,5,4.58585,50.0
183,Saint-Augustin,CA,1578152071,45.63,-73.98,0.9900000000000091,273.15,274.82,1008,88,90,2.237,35.00600000000003
184,Lazarev,RU,1578152335,52.23,141.51,-16.45999999999998,256.69,256.69,1012,81,100,8.276900000000001,2.3720000000000354
185,Malanje,AO,1578152226,-9.54,16.35,23.0,296.15,296.15,1017,88,90,4.6977,73.4
186,Buta,CD,1578152335,2.79,24.73,32.22000000000003,305.37,305.37,1006,32,100,2.6844,89.99600000000005
187,Santa Helena de Goias,BR,1578152240,-17.81,-50.6,28.78000000000003,301.93,301.93,1008,66,39,6.01753,83.80400000000006
188,Hit,IQ,1578152336,33.64,42.83,13.25,286.4,286.4,1014,41,95,7.1584,55.85
189,Hamilton,CA,1578152115,43.26,-79.87,0.9399999999999977,273.15,274.82,1008,89,90,2.237,35.00600000000003
190,Kodiak,US,1578151689,39.95,-94.76,-2.759999999999991,269.82,271.48,1024,79,1,5.8162,28.994000000000074
191,Taunggyi,MM,1578152336,20.78,97.03,14.900000000000034,288.05,288.05,1015,88,0,4.11608,58.820000000000064
192,Lorengau,PG,1578152080,-2.02,147.27,28.840000000000032,301.99,301.99,1006,74,89,16.03929,83.91200000000006
193,Racine,US,1578152312,42.73,-87.78,-0.8199999999999932,270.93,273.71,1015,78,90,8.0532,33.008
194,Coahuayana,MX,1578152100,18.62,-100.35,22.610000000000014,295.76,295.76,1021,49,5,0.8948,72.69800000000004
195,Iquitos,PE,1578152336,-3.75,-73.25,6.0,279.15,279.15,1014,100,40,6.9347,42.8
196,Tanout,NE,1578152336,14.97,8.88,21.04000000000002,294.19,294.19,1017,17,18,20.53566,69.87200000000004
197,Mehamn,NO,1578152085,71.03,27.85,-6.479999999999961,266.67,266.67,985,83,100,30.98245,20.33600000000007
198,Ancud,CL,1578152082,-41.87,-73.83,15.0,288.15,288.15,1023,67,75,8.0532,59.0
199,Yarmouth,CA,1578152057,43.84,-66.12,4.32000000000005,277.04,278.15,1007,80,90,3.3555,41.0
200,Amapa,HN,1578152337,15.09,-87.97,26.0,299.15,299.15,1019,74,40,3.3555,78.80000000000001
201,Tiksi,RU,1578151827,71.64,128.87,-25.769999999999982,247.38,247.38,1017,85,97,8.76904,-14.385999999999967
202,Acapulco,MX,1578152107,16.86,-99.88,25.0,298.15,298.15,1018,73,20,9.1717,77.0
203,Sanchi,IN,1578152337,23.49,77.74,13.0,286.15,286.15,1018,87,0,4.6977,55.400000000000006
204,Danane,CI,1578152337,7.26,-8.15,32.85000000000002,306.0,306.0,1010,12,29,3.89238,91.13000000000005
205,East London,ZA,1578152309,-33.02,27.91,28.0,301.15,301.15,1006,83,20,11.4087,82.4
206,George,MW,1578152338,-15.35,34.83,27.879999999999995,301.03,301.03,1008,73,88,4.83192,82.184
207,Iqaluit,CA,1578151913,63.75,-68.52,-17.120000000000005,255.93,256.15,1000,77,90,27.515100000000004,1.3999999999999986
208,Honiara,SB,1578152338,-9.43,159.96,25.0,298.15,298.15,1006,94,20,2.237,77.0
209,Sao Filipe,CV,1578152338,14.9,-24.5,23.420000000000016,296.57,296.57,1015,66,0,9.97702,74.15600000000003
210,La Romana,DO,1578152338,18.43,-68.97,28.0,301.15,301.15,1019,74,75,9.1717,82.4
211,Partizanskoye,RU,1578152338,53.35,78.35,-9.389999999999986,263.76,263.76,1022,92,0,12.90749,15.098000000000024
212,Saint-Philippe,CA,1578151829,45.36,-73.48,1.0,273.15,275.93,1008,80,90,5.8162,37.004000000000055
213,Yar-Sale,RU,1578152079,66.83,70.83,-10.799999999999955,262.35,262.35,983,94,99,15.30108,12.56000000000008
214,Faanui,PF,1578152100,-16.48,-151.75,27.08000000000004,300.23,300.23,1014,79,98,11.8561,80.74400000000009
215,Isla Vista,US,1578152338,34.41,-119.86,6.410000000000025,277.04,282.15,1027,70,40,4.6977,48.2
216,Nouadhibou,MR,1578152106,20.93,-17.03,23.0,296.15,296.15,1020,27,0,14.987900000000002,73.4
217,Kirakira,SB,1578152094,-10.46,161.92,24.890000000000043,298.04,298.04,1006,85,60,9.08222,76.80200000000008
218,Balclutha,NZ,1578152339,-46.24,169.74,6.0,279.15,279.15,1004,89,100,2.19226,42.8
219,Leeston,NZ,1578152339,-43.76,172.3,9.120000000000005,280.93,283.71,1006,87,100,1.1185,51.00800000000001
220,Kaspiyskiy,RU,1578152339,45.39,47.37,1.6000000000000227,274.75,274.75,1020,89,53,11.87847,34.88000000000004
221,Savannah Bight,HN,1578152339,16.45,-85.85,27.010000000000048,300.16,300.16,1019,84,74,18.947390000000002,80.61800000000008
222,Cullman,US,1578152120,34.17,-86.84,7.75,279.15,283.15,1019,70,40,8.0532,50.0
223,Te Anau,NZ,1578152120,-45.41,167.72,7.810000000000002,280.96,280.96,1004,76,100,9.05985,46.05800000000001
224,Rodopolis,GR,1578152340,41.26,23.0,8.25,278.71,283.71,1014,66,93,8.32164,51.00800000000001
225,Playas,EC,1578152340,-2.64,-80.39,25.450000000000045,298.6,298.6,1016,68,98,4.98851,77.81000000000009
226,Coihaique,CL,1578152118,-45.58,-72.07,14.450000000000045,287.15,288.15,1018,44,20,6.9347,59.0
227,San Quintin,PH,1578152340,17.54,120.52,20.950000000000045,294.1,294.1,1016,78,0,6.241230000000001,69.7100000000001
228,Lamar,US,1578152340,38.09,-102.62,-6.060000000000002,267.04,267.15,1023,85,1,5.8162,21.2
229,Hun,BE,1578152340,50.34,4.87,6.390000000000043,278.71,280.37,1032,87,75,8.0532,44.99600000000005
230,Chokurdakh,RU,1578151824,70.62,147.9,-25.73999999999998,247.41,247.41,1022,95,87,3.5792,-14.331999999999965
231,Coquimbo,CL,1578152113,-29.95,-71.34,17.0,290.15,290.15,1017,77,75,10.2902,62.6
232,Miri,NG,1578152341,10.31,9.75,27.230000000000018,300.38,300.38,1012,17,2,8.45586,81.01400000000004
233,Benghazi,LY,1578152341,32.12,20.07,15.910000000000025,289.06,289.06,1023,59,27,14.607610000000001,60.63800000000005
234,Esperance,AU,1578152115,-33.86,121.89,14.0,287.15,287.15,1022,67,0,10.2902,57.2
235,Lafayette,US,1578152097,30.22,-92.02,10.950000000000045,283.15,284.82,1026,62,1,11.4087,53.00600000000003
236,Lebu,ET,1578152093,8.96,38.73,21.0,294.15,294.15,1025,40,20,10.2902,69.80000000000001
237,Weinan,CN,1578152342,34.5,109.46,5.0,278.15,278.15,1019,56,100,2.237,41.0
238,Eureka,US,1578152085,40.8,-124.16,6.3700000000000045,278.71,281.15,1029,93,90,3.3555,46.4
239,Xam Nua,LA,1578152342,20.42,104.04,13.090000000000032,286.24,286.24,1018,98,3,2.55018,55.562000000000054
240,Bontang,ID,1578152342,0.12,117.47,26.83000000000004,299.98,299.98,1009,82,100,12.99697,80.29400000000007
241,Khartoum,SD,1578152342,15.59,32.54,25.0,298.15,298.15,1016,12,2,17.2249,77.0
242,Irece,BR,1578152342,-11.3,-41.86,28.82000000000005,301.97,301.97,1013,52,100,6.129380000000001,83.87600000000009
243,San Patricio,PY,1578152342,-26.98,-56.83,33.150000000000034,306.3,306.3,1009,36,6,4.6977,91.67000000000007
244,Mount Gambier,AU,1578152342,-37.83,140.78,13.0,286.15,286.15,1021,71,90,8.0532,55.400000000000006
245,Rocha,UY,1578152131,-34.48,-54.34,26.810000000000002,299.96,299.96,1016,38,0,8.0532,80.25800000000001
246,Sterling,US,1578152343,39.0,-77.4,11.730000000000018,281.15,287.15,1006,100,90,4.85429,57.2
247,Chernyshevskiy,RU,1578152343,63.01,112.47,-18.819999999999965,254.33,254.33,1013,98,100,1.07376,-1.8759999999999408
248,Caravelas,BR,1578152095,-17.73,-39.27,25.230000000000018,298.38,298.38,1011,84,100,13.22067,77.41400000000004
249,Camocim,BR,1578152343,-2.9,-40.84,29.57000000000005,302.72,302.72,1011,72,70,8.54534,85.22600000000008
250,Torbat-e Jam,IR,1578152343,35.24,60.63,3.8700000000000045,277.02,277.02,1018,75,64,2.95284,38.96600000000001
251,Fortuna,US,1578152098,40.6,-124.16,6.360000000000014,278.71,281.15,1029,100,90,3.3555,46.4
252,Pathein,MM,1578152344,16.78,94.73,24.689999999999998,297.84,297.84,1013,75,0,5.480650000000001,76.44200000000001
253,Tilichiki,RU,1578151825,60.47,166.1,-17.149999999999977,256.0,256.0,1024,68,86,4.45163,1.1300000000000416
254,Meulaboh,ID,1578152130,4.14,96.13,28.689999999999998,301.84,301.84,1011,67,0,1.2527200000000003,83.642
255,Erenhot,CN,1578152344,43.65,111.97,-9.109999999999957,264.04,264.04,1030,76,1,9.77569,15.602000000000078
256,Bandundu,CD,1578152344,-3.32,17.38,32.629999999999995,305.78,305.78,1006,44,50,0.96191,90.734
257,Turka,RU,1578152344,52.95,108.22,-7.569999999999993,265.58,265.58,1027,75,67,9.57436,18.37400000000001
258,Sorong,ID,1578152344,-0.86,131.25,23.78000000000003,296.93,296.93,1009,98,100,3.60157,74.80400000000006
259,Vestmannaeyjar,IS,1578151828,63.44,-20.27,7.0,280.15,280.15,988,93,90,28.857300000000002,44.6
260,Batticaloa,LK,1578152344,7.71,81.69,23.670000000000016,296.82,296.82,1012,87,11,2.37122,74.60600000000002
261,Qiryat Shemona,IL,1578152345,33.21,35.57,11.460000000000036,283.15,286.15,1014,81,75,4.6977,55.400000000000006
262,Iranshahr,IR,1578152345,27.21,60.69,19.0,292.15,292.15,1016,52,40,4.6977,66.2
263,Clyde River,CA,1578152345,70.47,-68.59,-32.99999999999997,240.15,240.15,1004,67,75,5.8162,-27.39999999999995
264,Sambava,MG,1578152345,-14.27,50.17,24.379999999999995,297.53,297.53,1010,97,100,2.12515,75.88399999999999
265,Chuy,UY,1578152081,-33.69,-53.46,26.07000000000005,299.22,299.22,1016,45,0,5.95042,78.9260000000001
266,San Vicente de Canete,PE,1578152346,-13.08,-76.38,21.82000000000005,294.97,294.97,1018,84,34,7.06892,71.2760000000001
267,Chara,GR,1578152346,39.42,22.43,9.110000000000014,281.48,283.15,1017,61,9,0.8948,50.0
268,Sao Joao da Barra,BR,1578152346,-21.64,-41.05,27.960000000000036,300.15,302.15,1009,66,75,9.1717,84.2
269,Rome,IT,1578151857,41.89,12.48,11.270000000000039,280.37,286.48,1022,66,40,3.3555,55.99400000000007
270,Ambon,FR,1578152128,47.55,-2.56,9.350000000000023,281.48,283.71,1037,70,75,3.3555,51.00800000000001
271,Bonavista,CA,1578152105,48.65,-53.11,-2.759999999999991,270.39,270.39,1001,85,92,10.53627,27.032000000000018
272,Tazovskiy,RU,1578152123,67.47,78.7,-14.810000000000002,258.34,258.34,990,93,100,14.20495,5.341999999999995
273,Caxito,BR,1578152346,-22.65,-42.51,28.670000000000016,301.15,302.15,1009,69,20,13.8694,84.2
274,Longview,US,1578152346,32.5,-94.74,7.110000000000014,278.71,282.15,1028,70,1,5.8162,48.2
275,Nishihara,JP,1578152346,35.74,139.53,3.5,274.26,278.15,1016,93,75,11.4087,41.0
276,Wajid,SO,1578152347,3.81,43.25,32.10000000000002,305.25,305.25,1009,28,15,11.27448,89.78000000000004
277,Antofagasta,CL,1578151942,-23.65,-70.4,21.0,294.15,294.15,1016,68,40,12.750900000000001,69.80000000000001
278,Hobe Sound,US,1578152347,27.06,-80.14,26.670000000000016,298.71,301.15,1020,74,40,11.4087,82.4
279,Broome,GB,1578151825,52.47,1.45,7.689999999999998,279.82,281.48,1031,81,40,11.4087,46.99400000000007
280,Haverfordwest,GB,1578152347,51.8,-4.97,8.07000000000005,279.82,282.15,1034,87,72,12.750900000000001,48.2
281,Gat,SN,1578152347,14.69,-16.54,30.470000000000027,303.15,304.15,1013,19,66,6.9347,87.80000000000001
282,Qesarya,IL,1578152347,32.52,34.9,11.340000000000032,283.71,286.15,1015,93,40,9.1717,55.400000000000006
283,Trincomalee,LK,1578152347,8.58,81.23,23.980000000000018,297.13,297.13,1012,88,30,2.95284,75.16400000000004
284,Husavik,CA,1578152099,50.56,-96.99,-3.6299999999999955,269.26,269.82,1015,96,96,5.010880000000001,26.00600000000003
285,Paidha,UG,1578152348,2.42,30.99,23.27000000000004,296.42,296.42,1007,60,78,3.75816,73.88600000000008
286,Kiunga,PG,1578152348,-6.12,141.3,23.439999999999998,296.59,296.59,1008,93,100,2.08041,74.19200000000001
287,Vizinga,RU,1578152348,61.08,50.08,0.060000000000002274,273.21,273.21,993,95,100,8.63482,32.108000000000004
288,Krasnoarmeysk,RU,1578152348,56.12,38.15,-0.37999999999999545,272.04,273.71,997,86,90,11.185,33.008
289,Wajima,JP,1578152348,37.4,136.9,5.53000000000003,278.68,278.68,1020,67,100,24.58463,41.95400000000005
290,Hithadhoo,MV,1578151829,-0.6,73.08,28.870000000000005,302.02,302.02,1011,71,100,6.75574,83.96600000000001
291,Mitsamiouli,KM,1578152348,-11.38,43.28,30.0,303.15,303.15,1012,79,20,4.6977,86.0
292,Namibe,AO,1578152229,-15.19,12.15,24.0,297.15,297.15,1013,88,75,8.0532,75.2
293,Hede,SE,1578152348,60.45,15.49,0.8600000000000136,273.15,274.82,1004,50,0,21.922600000000003,35.00600000000003
294,Okmulgee,US,1578152296,35.62,-95.96,3.7100000000000364,276.15,278.15,1028,69,1,6.9347,41.0
295,Jiayuguan,CN,1578152349,39.77,98.29,-4.739999999999952,268.41,268.41,1024,41,100,3.87001,23.468000000000085
296,Salisbury,GB,1578152349,51.07,-1.8,7.830000000000041,279.82,282.15,1035,81,75,9.1717,48.2
297,Amahai,ID,1578152349,-3.31,129.0,28.05000000000001,301.2,301.2,1009,74,100,6.330710000000001,82.49000000000002
298,Indian Trail,US,1578152349,35.08,-80.67,14.510000000000048,286.48,288.71,1011,100,75,6.9347,60.00800000000001
299,Altamont,CA,1578152349,49.4,-98.5,-6.0,267.15,267.15,1013,100,90,5.8162,21.2
300,Chumikan,RU,1578152349,54.72,135.31,-19.20999999999998,253.94,253.94,1017,65,0,13.95888,-2.5779999999999674
301,Ziro,IN,1578152076,27.54,93.82,15.0,288.15,288.15,1015,93,75,2.237,59.0
302,Abu Kamal,SY,1578152350,34.45,40.92,11.610000000000014,284.76,284.76,1013,44,0,4.51874,52.898000000000025
303,Pavlodar,KZ,1578152350,52.28,76.96,-3.0,270.15,270.15,1022,92,90,13.422,26.6
304,Lesnoye,RU,1578152350,51.57,42.77,0.5600000000000023,273.71,273.71,1002,92,100,11.00604,33.008
305,Klyuchi,RU,1578152350,52.25,79.17,-7.529999999999973,265.62,265.62,1025,88,24,10.066500000000001,18.446000000000048
306,Sibolga,ID,1578152350,1.74,98.78,22.910000000000025,296.06,296.06,1011,95,100,2.4607,73.23800000000006
307,Kars,TR,1578152350,40.61,43.1,-2.759999999999991,268.15,272.15,1011,92,75,3.3555,30.2
308,Fernie,CA,1578152350,49.5,-115.06,2.080000000000041,275.15,275.37,1003,80,90,14.987900000000002,35.99600000000005
309,Jieshi,CN,1578152350,22.82,115.83,18.890000000000043,292.04,292.04,1019,85,100,5.54776,66.00200000000008
310,Brigantine,US,1578152351,39.41,-74.36,12.090000000000032,283.15,289.82,1004,93,90,6.9347,62.00600000000003
311,Port Lincoln,AU,1578152086,-34.72,135.86,13.850000000000023,287.0,287.0,1021,79,100,14.160210000000001,56.93000000000004
312,Lincoln,GB,1578152351,53.23,-0.54,8.170000000000016,280.37,282.15,1030,81,40,12.750900000000001,48.2
313,Ciudad Bolivar,VE,1578152250,8.12,-63.55,29.390000000000043,302.54,302.54,1018,54,24,9.283550000000002,84.90200000000007
314,Ayan,IR,1578152351,38.23,44.7,-8.149999999999977,265.0,265.0,1015,94,100,2.16989,17.33000000000004
315,Lokosovo,RU,1578152351,61.13,74.84,-7.419999999999959,265.73,265.73,999,90,100,10.62575,18.644000000000073
316,Vernon,CA,1578152351,50.27,-119.27,6.0,279.15,279.15,1007,45,90,17.2249,42.8
317,Aksarka,RU,1578152123,66.56,67.8,-6.229999999999961,266.92,266.92,981,94,100,13.533850000000001,20.78600000000007
318,Keti Bandar,PK,1578152351,24.14,67.45,20.80000000000001,293.95,293.95,1017,76,0,6.75574,69.44000000000003
319,Hovd,NO,1578152123,63.83,10.7,2.2200000000000273,272.59,277.15,1010,78,90,23.041100000000004,39.2
320,Kahului,US,1578152011,20.89,-156.47,20.80000000000001,292.59,296.15,1021,83,20,13.8694,73.4
321,Fort Myers Beach,US,1578152265,26.45,-81.95,26.30000000000001,298.15,300.37,1019,74,20,11.4087,80.99600000000005
322,Sangar,RU,1578152352,63.92,127.47,-27.20999999999998,245.94,245.94,1020,94,100,6.375450000000001,-16.977999999999966
323,Saint George,GR,1578152352,39.45,22.34,9.110000000000014,281.48,283.15,1017,61,9,0.8948,50.0
324,Rubiataba,BR,1578152352,-15.16,-49.8,22.410000000000025,295.56,295.56,1011,96,100,7.3821,72.33800000000005
325,Uvat,RU,1578152352,59.14,68.9,-4.71999999999997,268.43,268.43,1001,93,100,9.73095,23.504000000000055
326,Bodden Town,KY,1578152352,19.28,-81.25,29.57000000000005,302.04,303.15,1020,74,20,6.9347,86.0
327,Kushikino,JP,1578152352,31.72,130.27,6.670000000000016,279.82,279.82,1021,75,0,11.99032,44.00600000000003
328,Gizo,IL,1578151645,31.8,34.94,9.970000000000027,279.82,284.82,1015,93,75,11.4087,53.00600000000003
329,Tamiahua,MX,1578152352,21.28,-97.45,20.160000000000025,293.31,293.31,1031,56,0,19.86456,68.28800000000004
330,Hannibal,US,1578152353,39.71,-91.36,1.410000000000025,274.15,275.15,1020,80,90,10.2902,35.6
331,Maniitsoq,GL,1578152353,65.42,-52.9,-5.189999999999998,267.96,267.96,988,70,76,12.23639,22.658
332,Sibu,MY,1578152353,2.29,111.83,25.0,298.15,298.15,1010,94,75,3.3555,77.0
333,Sorland,NO,1578152128,67.67,12.69,0.7100000000000364,273.86,273.86,1004,70,100,26.59793,33.27800000000006
334,Storforshei,NO,1578152353,66.4,14.52,-4.079999999999984,267.59,270.15,1002,92,75,2.237,26.6
335,San Ramon,NI,1578152353,12.92,-85.84,18.0,291.15,291.15,1019,93,40,4.6977,64.4
336,Arman,RU,1578152097,59.7,150.17,-5.509999999999991,267.64,267.64,1016,76,99,29.81921,22.082000000000015
337,Aykhal,RU,1578152353,65.95,111.51,-27.99999999999997,245.15,245.15,1004,75,100,2.237,-18.39999999999995
338,Adre,TD,1578152353,13.47,22.2,25.29000000000002,298.44,298.44,1012,17,32,13.981250000000001,77.52200000000005
339,Eydhafushi,MV,1578152354,5.1,73.07,28.170000000000016,301.32,301.32,1011,78,98,10.424420000000001,82.70600000000003
340,Dunedin,NZ,1578151949,-45.87,170.5,10.560000000000002,283.71,283.71,1002,70,100,7.00181,51.00800000000001
341,Itaquyry,PY,1578152354,-24.93,-55.22,28.939999999999998,302.09,302.09,1010,54,63,4.96614,84.092
342,Bambous Virieux,MU,1578152354,-20.34,57.76,25.170000000000016,297.15,299.26,1012,100,75,12.99697,78.99800000000002
343,Adrar,DZ,1578151833,27.87,-0.29,18.0,291.15,291.15,1025,25,100,10.2902,64.4
344,Caala,AO,1578152354,-12.85,15.56,21.0,294.15,294.15,1021,77,75,13.8694,69.80000000000001
345,Bathsheba,BB,1578152093,13.22,-59.52,29.0,302.15,302.15,1017,62,40,12.750900000000001,84.2
346,Ekibastuz,KZ,1578152354,51.72,75.32,-4.399999999999977,268.75,268.75,1024,85,100,15.905070000000002,24.08000000000004
347,Namtsy,RU,1578152354,62.72,129.66,-36.99999999999997,236.15,236.15,1017,65,100,4.474,-34.59999999999995
348,Ulagan,RU,1578152355,50.63,87.96,-14.569999999999993,258.58,258.58,1030,78,82,3.6239400000000006,5.774000000000012
349,Ixtapa,MX,1578152355,20.71,-105.21,14.580000000000041,286.15,289.26,1020,93,75,7.85187,60.998000000000026
350,Dikson,RU,1578152067,73.51,80.55,-21.399999999999977,251.75,251.75,991,89,10,18.43288,-6.5199999999999605
351,Teknaf,BD,1578152085,20.86,92.31,18.79000000000002,291.94,291.94,1014,96,30,1.61064,65.82200000000003
352,Sao Gabriel da Cachoeira,BR,1578152355,-0.13,-67.09,30.879999999999995,304.03,304.03,1014,60,2,3.22128,87.584
353,Bemban,MY,1578152355,2.27,102.38,26.80000000000001,299.82,300.15,1012,74,20,5.8162,80.6
354,Port Hardy,CA,1578152355,50.7,-127.42,1.0,274.15,274.15,1013,100,75,5.8162,33.8
355,San Cristobal,HN,1578152355,14.68,-86.92,22.510000000000048,295.66,295.66,1020,70,100,2.32648,72.51800000000009
356,Pochutla,MX,1578152131,15.74,-96.47,23.850000000000023,291.15,300.37,1027,52,20,2.88573,80.99600000000005
357,Yamada,JP,1578152355,36.58,137.08,2.9700000000000273,274.82,277.15,1019,86,75,6.9347,39.2
358,Bowen,AU,1578152356,-20.01,148.25,23.170000000000016,296.15,296.48,1011,83,49,4.6977,73.99400000000009
359,Darovskoy,RU,1578152356,58.77,47.96,-1.75,271.4,271.4,997,94,100,9.50725,28.85
360,Kuytun,RU,1578152356,54.34,101.51,-8.20999999999998,264.94,264.94,1027,86,100,3.04232,17.222000000000037
361,Axim,GH,1578152356,4.87,-2.24,33.33000000000004,306.48,306.48,1010,18,14,7.493950000000001,91.99400000000009
362,Eugene,US,1578152210,44.05,-123.1,3.640000000000043,274.82,278.15,1028,86,75,6.9347,41.0
363,Gazojak,TM,1578152356,41.19,61.4,0.8300000000000409,273.98,273.98,1023,53,0,2.93047,33.49400000000007
364,Belyy Yar,RU,1578152356,53.6,91.39,-6.0,267.15,267.15,1025,79,100,4.474,21.2
365,Cubara,CO,1578152356,7.0,-72.11,32.56,305.71,305.71,1018,32,66,0.8948,90.608
366,Cabedelo,BR,1578152357,-6.97,-34.84,31.0,304.15,304.15,1013,55,40,9.1717,87.80000000000001
367,Vilcun,CL,1578152357,-38.65,-72.23,20.310000000000002,293.15,293.71,1019,49,41,11.4087,69.00800000000001
368,Ranong,TH,1578152357,9.96,98.62,25.79000000000002,298.94,298.94,1013,81,0,7.11366,78.42200000000004
369,Lompoc,US,1578152081,34.64,-120.46,5.900000000000034,277.04,281.48,1028,93,90,5.8162,46.99400000000007
370,Rakke,EE,1578152357,58.99,26.24,0.82000000000005,273.97,273.97,991,82,89,12.012690000000001,33.47600000000009
371,Saldanha,PT,1578151830,41.42,-6.55,9.32000000000005,282.47,282.47,1033,67,1,7.672910000000001,48.776000000000096
372,Letterkenny,IE,1578152357,54.95,-7.73,9.0,282.15,282.15,1028,93,75,14.987900000000002,48.2
373,Kudahuvadhoo,MV,1578152119,2.67,72.89,28.450000000000045,301.6,301.6,1011,70,70,3.22128,83.2100000000001
374,Beringovskiy,RU,1578152358,63.05,179.32,-22.72999999999999,250.42,250.42,1022,75,0,18.052590000000002,-8.91399999999998
375,Bida,NG,1578152358,9.08,6.02,36.06,309.21,309.21,1009,11,34,1.7896,96.908
376,Mana,NG,1578152135,13.03,5.27,26.720000000000027,299.87,299.87,1014,13,31,16.71039,80.09600000000006
377,Indiaroba,BR,1578152358,-11.53,-37.51,30.730000000000018,303.88,303.88,1011,58,69,9.26118,87.31400000000004
378,Ketchikan,US,1578152358,55.34,-131.65,-1.0,272.15,272.15,999,86,90,3.3555,30.2
379,General Bravo,MX,1578152358,25.79,-99.18,14.020000000000039,287.17,287.17,1031,48,0,4.38452,57.236000000000075
380,Klaksvik,FO,1578152071,62.23,-6.59,1.0,274.15,274.15,1015,95,100,17.2249,33.8
381,Beaverlodge,CA,1578152359,55.21,-119.43,-5.0,268.15,268.15,993,92,90,11.4087,23.0
382,Fort Wellington,GY,1578152359,6.4,-57.6,26.390000000000043,299.54,299.54,1016,75,26,11.699510000000002,79.50200000000008
383,Ovalle,CL,1578152359,-30.6,-71.2,22.860000000000014,296.01,296.01,1016,44,0,7.69528,73.14800000000002
384,Rio Gallegos,AR,1578152359,-51.62,-69.22,14.0,287.15,287.15,1009,41,40,23.041100000000004,57.2
385,Emerald,AU,1578152359,-23.53,148.16,24.360000000000014,297.04,298.15,1013,65,0,13.8694,77.0
386,Vila Franca do Campo,PT,1578152359,37.72,-25.43,19.0,292.15,292.15,1028,77,20,12.750900000000001,66.2
387,Goias,BR,1578152359,-15.93,-50.14,22.28000000000003,295.43,295.43,1010,94,100,10.20072,72.10400000000006
388,Simpang,ID,1578152359,4.36,96.17,23.680000000000007,296.83,296.83,1011,87,0,2.10278,74.62400000000002
389,Abu Dhabi,AE,1578152359,24.47,54.37,26.57000000000005,298.15,301.15,1014,50,0,4.6977,82.4
390,Pionerskiy,RU,1578152359,61.2,62.86,-2.42999999999995,270.72,270.72,994,87,74,9.50725,27.62600000000009
391,Wuchang,CN,1578152360,44.93,127.16,-19.22999999999999,253.92,253.92,1032,99,33,4.42926,-2.613999999999983
392,Gap,FR,1578152360,44.56,6.08,2.2200000000000273,275.37,275.37,1024,54,3,5.61487,35.99600000000005
393,La Asuncion,AR,1578152096,-26.05,-65.39,23.55000000000001,296.7,296.7,1014,58,0,6.30834,74.39000000000001
394,Dingle,PH,1578152360,11.0,122.67,22.30000000000001,295.45,295.45,1012,94,1,9.6191,72.14000000000001
395,Yankton,US,1578152360,42.87,-97.4,-7.1200000000000045,265.93,266.15,1020,92,1,3.3555,19.4
396,Carmen,PH,1578152130,7.36,125.71,24.390000000000043,296.48,299.15,1011,78,40,4.6977,78.80000000000001
397,Sinnamary,GF,1578152360,5.38,-52.96,26.370000000000005,299.52,299.52,1015,83,59,16.59854,79.46600000000001
398,Kutum,SD,1578152067,14.2,24.66,23.75,296.9,296.9,1014,17,38,11.565290000000001,74.75
399,Businga,CD,1578152361,3.34,20.89,36.629999999999995,309.78,309.78,1005,20,1,3.73579,97.934
400,Honningsvag,NO,1578152361,70.98,25.97,-4.039999999999964,269.11,269.11,988,78,100,33.666850000000004,24.728000000000065
401,Bakel,SN,1578152361,14.9,-12.46,30.74000000000001,303.89,303.89,1013,6,37,12.348239999999999,87.33200000000002
402,Cukai,MY,1578152361,4.25,103.42,25.879999999999995,298.15,300.15,1013,83,66,5.8162,80.6
403,Timbuktu,ML,1578152361,16.77,-3.01,23.960000000000036,297.11,297.11,1016,11,95,13.019340000000001,75.12800000000007
404,Guerrero Negro,MX,1578152361,27.97,-114.04,12.629999999999995,285.78,285.78,1024,52,11,2.72914,54.733999999999995
405,Arandis,NA,1578152361,-22.42,14.98,17.78000000000003,290.93,290.93,1011,86,5,2.99758,64.00400000000005
406,Bereda,ES,1578152133,43.27,-7.54,10.53000000000003,281.48,285.93,1034,76,20,1.1185,55.004000000000055
407,Iskateley,RU,1578152362,67.68,53.15,-4.409999999999968,268.74,268.74,971,80,42,27.09007,24.062000000000058
408,Baoning,CN,1578152362,25.34,110.03,12.0,285.15,285.15,1022,76,90,4.474,53.6
409,Gigmoto,PH,1578152362,13.78,124.39,26.430000000000007,299.58,299.58,1014,79,100,28.678340000000002,79.57400000000001
410,Miranda,BR,1578152114,-20.24,-56.38,33.14000000000004,306.29,306.29,1007,41,62,5.50302,91.65200000000007
411,Roald,NO,1578152086,62.58,6.12,0.4000000000000341,269.82,277.15,1018,60,75,6.9347,39.2
412,San Luis,AR,1578152268,-33.3,-66.34,34.23000000000002,307.38,307.38,1010,26,0,8.25453,93.61400000000003
413,Macia,MZ,1578152362,-25.03,33.09,33.610000000000014,306.76,306.76,1008,45,33,13.847030000000002,92.49800000000002
414,Jalu,LY,1578152103,29.03,21.55,15.5,288.65,288.65,1023,50,33,13.108820000000001,59.900000000000006
415,Vanavara,RU,1578152362,60.35,102.28,-18.47999999999999,254.67,254.67,1019,94,26,4.22793,-1.2639999999999816
416,Isangel,VU,1578152100,-19.55,169.27,24.360000000000014,297.51,297.51,1011,79,17,13.17593,75.84800000000003
417,Yichang,CN,1578152363,30.77,111.32,6.140000000000043,279.29,279.29,1023,60,100,1.85671,43.05200000000008
418,Skovorodino,RU,1578152363,53.99,123.94,-25.859999999999985,247.29,247.29,1025,97,0,1.47642,-14.547999999999973
419,Salta,AR,1578152082,-24.79,-65.41,27.450000000000045,300.15,301.15,1017,45,20,5.8162,82.4
420,Tautira,PF,1578152069,-17.73,-149.15,25.0,298.15,298.15,1016,78,100,11.90084,77.0
421,Tungor,RU,1578152363,53.39,142.95,-16.379999999999995,256.77,256.77,1007,92,100,19.350050000000003,2.516000000000009
422,Codrington,AU,1578152102,-28.95,153.24,20.75,290.15,296.15,1012,82,0,4.11608,73.4
423,Mirabad,IR,1578152363,28.27,61.33,13.640000000000043,286.79,286.79,1015,66,98,8.99274,56.55200000000008
424,Estelle,FR,1578152363,43.97,3.47,14.170000000000016,286.48,289.15,1028,44,30,12.750900000000001,60.8
425,Ostrovnoy,RU,1578151824,68.05,39.51,-2.9799999999999613,270.17,270.17,972,94,100,26.575560000000003,26.63600000000007
426,Genhe,CN,1578152364,50.78,121.52,-23.92999999999998,249.22,249.22,1030,99,15,3.3555,-11.073999999999963
427,Foshan,CN,1578152364,23.02,113.11,20.650000000000034,291.48,294.82,1020,64,100,8.29927,71.00600000000003
428,Cidreira,BR,1578151826,-30.17,-50.22,22.58000000000004,295.73,295.73,1015,80,82,17.157790000000002,72.64400000000008
429,Talara,PE,1578152093,-4.58,-81.27,17.0,290.15,290.15,1015,100,100,14.987900000000002,62.6
430,Marienburg,DE,1578152364,52.12,9.98,4.580000000000041,275.93,280.15,1023,93,75,10.2902,44.6
431,Salamanca,MX,1578152364,20.57,-101.19,9.220000000000027,281.15,283.15,1035,60,40,4.6977,50.0
432,Khatanga,RU,1578152093,71.98,102.47,-26.17999999999998,246.97,246.97,1004,86,54,4.40689,-15.12399999999996
433,Guantanamo,BO,1578152365,-16.14,-62.05,30.0,303.15,303.15,1015,66,75,5.8162,86.0
434,Zig,US,1578152365,40.13,-92.77,-2.25,270.15,271.48,1021,86,90,13.8694,28.994000000000074
435,Blagoyevo,RU,1578152365,63.37,47.92,-4.269999999999982,268.88,268.88,987,89,5,7.3821,24.314000000000032
436,Guanagazapa,GT,1578152365,14.23,-90.64,22.470000000000027,291.15,300.15,1018,74,5,4.6977,80.6
437,Kyaukse,MM,1578152365,21.6,96.13,20.0,293.15,293.15,1015,88,90,3.3555,68.0
438,Vanimo,PG,1578152366,-2.67,141.3,28.370000000000005,301.52,301.52,1007,77,100,22.99636,83.066
439,Jambi,ID,1578152366,-1.6,103.62,23.890000000000043,297.04,297.04,1011,93,46,3.19891,75.00200000000008
440,Sokolovo-Kundryuchenskiy,RU,1578152366,47.83,39.94,3.0,276.15,276.15,1014,64,0,6.711,37.4
441,Bautzen,DE,1578152366,51.18,14.43,3.6000000000000227,275.37,278.15,1018,86,90,16.1064,41.0
442,Necochea,AR,1578152050,-38.55,-58.74,29.230000000000018,302.38,302.38,1013,37,50,9.462510000000002,84.61400000000003
443,Khasan,RU,1578152086,42.43,130.64,-6.8700000000000045,266.28,266.28,1027,65,0,11.94558,19.633999999999993
444,Tuy Hoa,VN,1578152366,13.08,109.3,24.170000000000016,297.32,297.32,1017,77,100,19.64086,75.50600000000003
445,Key West,US,1578152366,47.93,-96.78,-10.370000000000005,261.15,264.15,1016,92,90,8.0532,15.8
446,Peace River,CA,1578152366,56.23,-117.29,-7.599999999999966,265.15,265.93,992,92,90,8.0532,19.004000000000055
447,Demyansk,RU,1578152366,57.64,32.46,0.9000000000000341,274.05,274.05,993,84,94,9.77569,33.62000000000006
448,Altoona,US,1578152081,40.52,-78.39,8.379999999999995,279.15,284.15,1005,87,90,10.2902,51.8
449,Belmonte,PT,1578152112,40.36,-7.35,10.629999999999995,282.04,285.93,1033,79,0,7.65054,55.004000000000055
450,Bundaberg,AU,1578152071,-24.87,152.35,23.0,296.15,296.15,1014,69,40,5.8162,73.4
451,Livingstonia,MW,1578152367,-10.61,34.11,20.350000000000023,293.5,293.5,1009,90,99,2.66203,68.63000000000005
452,Minab,IR,1578152367,27.15,57.07,22.0,295.15,295.15,1014,83,40,4.6977,71.6
453,Rundu,NA,1578152367,-17.91,19.77,27.180000000000007,300.33,300.33,1007,56,100,10.62575,80.924
454,Zhanakorgan,KZ,1578152367,43.91,67.25,-0.06999999999999318,273.08,273.08,1021,96,96,4.31741,31.874000000000013
455,Magnolia,US,1578152367,33.27,-93.24,5.970000000000027,278.15,280.15,1025,66,90,4.6977,44.6
456,Barra da Estiva,BR,1578152368,-13.63,-41.33,21.360000000000014,294.51,294.51,1013,78,100,3.15417,70.44800000000004
457,Masaurhi,IN,1578152368,25.35,85.03,15.0,288.15,288.15,1016,93,40,5.68198,59.0
458,Irbit,RU,1578152368,57.67,63.06,0.57000000000005,273.72,273.72,1003,86,99,11.140260000000001,33.02600000000009
459,Tchaourou,BJ,1578152368,8.89,2.6,35.14000000000004,308.29,308.29,1009,16,100,3.87001,95.25200000000008
460,Alekseyevsk,RU,1578152368,57.84,108.35,-6.25,266.9,266.9,1019,94,100,8.03083,20.75
461,Shirokiy,RU,1578152368,53.87,39.17,-0.6999999999999886,272.45,272.45,1003,84,100,15.994550000000002,30.74000000000002
462,Horadiz,AZ,1578152368,39.45,47.33,6.0,279.15,279.15,1016,100,90,9.1717,42.8
463,Padre Paraiso,BR,1578152368,-17.07,-41.48,22.54000000000002,295.69,295.69,1011,83,100,9.104590000000002,72.57200000000003
464,Mayo,CA,1578152113,63.59,-135.9,-23.99999999999997,249.15,249.15,997,76,90,8.0532,-11.199999999999953
465,Luganville,VU,1578152368,-15.51,167.18,27.0,300.15,300.15,1009,74,40,8.0532,80.6
466,Beian,NO,1578152369,63.66,9.57,2.170000000000016,272.59,277.15,1012,60,75,23.041100000000004,39.2
467,Basdiot,PH,1578152369,9.94,123.38,26.0,299.15,299.15,1011,78,20,4.6977,78.80000000000001
468,Ulladulla,AU,1578152369,-35.36,150.48,20.189999999999998,290.93,295.15,1015,37,90,10.2902,71.6
469,Soconusco,MX,1578152369,17.96,-94.88,25.0,298.15,298.15,1025,61,90,13.8694,77.0
470,Rosetta,EG,1578152369,31.4,30.42,16.0,289.15,289.15,1017,63,40,16.1064,60.8
471,Reconquista,AR,1578152369,-29.14,-59.64,31.160000000000025,304.31,304.31,1011,30,0,10.044130000000001,88.08800000000005
472,Santa Isabel do Rio Negro,BR,1578152369,-0.41,-65.02,33.400000000000034,306.55,306.55,1014,41,18,2.86336,92.12000000000006
473,Dukat,AL,1578152369,40.25,19.57,12.78000000000003,285.93,285.93,1019,69,99,1.00665,55.004000000000055
474,Kambam,ID,1578152369,5.25,96.86,21.850000000000023,295.0,295.0,1012,92,1,3.40024,71.33000000000004
475,Lumeje,AO,1578152370,-11.56,20.78,20.470000000000027,293.62,293.62,1011,88,100,4.67533,68.84600000000006
476,Fecamp,FR,1578152370,49.76,0.37,7.770000000000039,279.82,281.48,1036,87,75,13.8694,46.99400000000007
477,Lazaro Cardenas,MX,1578152370,28.39,-105.62,-0.20999999999997954,270.15,275.93,1032,86,5,5.8162,37.004000000000055
478,San Jose,HN,1578152128,14.25,-87.96,22.75,295.9,295.9,1020,61,72,8.097940000000001,72.95
479,Amarante do Maranhao,BR,1578152370,-5.57,-46.74,20.900000000000034,294.05,294.05,1015,99,100,2.14752,69.62000000000006
480,Port-Gentil,GA,1578152082,-0.72,8.78,31.0,304.15,304.15,1009,79,40,11.4087,87.80000000000001
481,Barahona,DO,1578152150,18.21,-71.1,29.0,302.15,302.15,1019,66,20,6.9347,84.2
482,Ontario,US,1578152122,34.07,-117.65,7.1299999999999955,270.37,284.82,1028,100,1,1.43168,53.00600000000003
483,Irtyshskiy,RU,1578152370,58.33,68.13,-5.069999999999993,268.08,268.08,1002,92,100,10.424420000000001,22.87400000000001
484,Moron,HT,1578152123,18.56,-74.26,27.150000000000034,300.3,300.3,1020,67,0,4.78718,80.87000000000006
485,Turkmenabat,TM,1578152371,39.09,63.58,4.0,277.15,277.15,1021,93,90,6.9347,39.2
486,Tuatapere,NZ,1578151827,-46.13,167.69,8.330000000000041,281.48,281.48,1001,91,100,2.99758,46.99400000000007
487,Paarl,ZA,1578152371,-33.74,18.98,23.58000000000004,293.71,299.26,1010,60,0,13.8694,78.99800000000002
488,Grand Gaube,MU,1578152371,-20.01,57.66,24.99000000000001,297.15,299.26,1012,100,75,14.11547,78.99800000000002
489,Jinchang,CN,1578152371,38.52,102.19,-4.92999999999995,268.22,268.22,1023,36,99,7.56106,23.12600000000009
490,Mahuva,IN,1578152371,21.09,71.76,23.05000000000001,296.2,296.2,1014,53,0,18.00785,73.49000000000002
491,Nova Ushytsya,UA,1578152371,48.84,27.27,3.330000000000041,276.48,276.48,1011,86,100,7.00181,37.99400000000007
492,Manhumirim,BR,1578152372,-20.36,-41.96,22.24000000000001,295.39,295.39,1009,83,95,4.6977,72.03200000000001
493,Mingguang,CN,1578152372,32.78,118.01,7.2000000000000455,280.35,280.35,1028,69,100,8.925630000000002,44.96000000000008
494,Rabo de Peixe,PT,1578152372,37.8,-25.58,19.0,292.15,292.15,1028,77,20,12.750900000000001,66.2
495,Mount Isa,AU,1578152126,-20.73,139.49,29.0,302.15,302.15,1009,48,52,3.3555,84.2
496,Svetlopolyansk,RU,1578152372,59.42,52.36,-1.25,271.9,271.9,998,92,100,10.312570000000001,29.75
497,Labuhan,ID,1578152112,-2.54,115.51,26.379999999999995,299.53,299.53,1009,75,99,1.02902,79.484
498,Tashtyp,RU,1578152372,52.8,89.89,-8.689999999999998,264.46,264.46,1029,88,88,5.68198,16.358000000000004
499,Lascahobas,HT,1578152372,18.83,-71.94,29.0,302.15,302.15,1019,62,20,8.0532,84.2
500,Oum Hadjer,TD,1578152372,13.3,19.7,28.510000000000048,301.66,301.66,1012,14,4,13.936510000000002,83.3180000000001
501,Qasigiannguit,GL,1578152106,68.82,-51.19,-8.0,265.15,265.15,990,78,75,16.1064,17.6
502,Yumen,CN,1578152097,40.29,97.04,-7.75,265.4,265.4,1025,58,100,0.69347,18.049999999999997
503,Satka,RU,1578152219,55.04,59.03,-4.729999999999961,268.42,268.42,1011,90,94,9.12696,23.486000000000068
504,Zambezi,ZM,1578152373,-13.55,23.12,22.57000000000005,295.72,295.72,1010,86,100,6.97944,72.62600000000009
505,Alpena,US,1578152373,45.06,-83.43,-1.5,270.93,272.15,1012,80,90,5.8162,30.2
506,Ueckermunde,DE,1578152373,53.74,14.04,3.4700000000000273,275.93,277.04,1013,86,75,14.987900000000002,39.00200000000008
507,Novo Aripuana,BR,1578152373,-5.12,-60.38,32.610000000000014,305.76,305.76,1013,52,100,3.51209,90.69800000000004
508,Sinegorye,RU,1578152373,62.09,150.53,-21.079999999999984,252.07,252.07,1023,97,41,2.61729,-5.943999999999974
509,Banjar,ID,1578152373,-7.37,108.54,24.310000000000002,297.46,297.46,1010,93,100,2.55018,75.75800000000001
510,Severo-Kurilsk,RU,1578151881,50.68,156.12,-8.649999999999977,264.5,264.5,1002,93,83,4.78718,16.430000000000042
511,Talnakh,RU,1578152078,69.49,88.39,-18.99999999999997,254.15,254.15,993,84,100,15.659,-2.199999999999953
512,Magadan,RU,1578152135,59.56,150.8,-6.92999999999995,266.22,266.22,1017,77,98,24.98729,19.52600000000009
513,Bonnyville,CA,1578152374,54.27,-110.74,-8.0,265.15,265.15,994,85,90,9.1717,17.6
514,Coolum Beach,AU,1578152298,-26.53,153.09,20.900000000000034,292.04,295.93,1013,88,1,2.41596,73.00400000000005
515,Sola,TZ,1578152123,-3.17,33.8,25.100000000000023,298.25,298.25,1008,57,100,8.79141,77.18000000000004
516,Les Cayes,HT,1578152374,18.19,-73.75,26.650000000000034,299.8,299.8,1020,72,0,3.22128,79.97000000000006
517,Uyuni,BO,1578152374,-20.46,-66.82,15.640000000000043,288.79,288.79,1015,48,0,9.373030000000002,60.15200000000008
518,Hualmay,PE,1578152105,-11.1,-77.61,23.939999999999998,297.09,297.09,1019,67,79,7.89661,75.092
519,Aloleng,PH,1578152375,16.13,119.78,21.470000000000027,294.62,294.62,1015,81,0,3.89238,70.64600000000004
520,Zyryanka,RU,1578152076,65.73,150.89,-16.96999999999997,256.18,256.18,1020,76,79,11.90084,1.454000000000054
521,Baiyin,CN,1578152074,36.55,104.13,0.5100000000000477,272.15,274.82,1014,46,53,8.948,35.00600000000003
522,Baraki Barak,AF,1578152375,33.97,68.95,-1.6899999999999977,271.46,271.46,1023,47,0,2.72914,28.958000000000006
523,Zurrieq,MT,1578152375,35.83,14.47,13.720000000000027,286.48,287.15,1023,67,20,16.1064,57.2
524,Bahia Blanca,AR,1578152375,-38.72,-62.27,30.970000000000027,304.12,304.12,1011,35,78,14.02599,87.74600000000005
525,Babati,TZ,1578152375,-4.21,35.75,25.640000000000043,298.79,298.79,1010,60,38,5.27932,78.15200000000007
526,Brenes,ES,1578152375,37.55,-5.87,13.79000000000002,286.48,287.59,1030,62,0,10.2902,57.992
527,Saint-Francois,FR,1578152375,46.42,3.91,6.840000000000032,279.26,281.15,1035,78,20,10.2902,46.4
528,Noumea,NC,1578152376,-22.28,166.46,23.180000000000007,294.15,298.71,1013,68,56,13.533850000000001,78.00800000000001
529,Sao Miguel do Araguaia,BR,1578152376,-13.28,-50.16,24.27000000000004,297.42,297.42,1012,93,100,7.98609,75.68600000000006
530,Gravdal,NO,1578152376,59.79,5.78,2.2800000000000296,274.26,277.15,1021,69,40,11.4087,39.2
531,Mandalgovi,MN,1578152376,45.76,106.27,-11.519999999999982,261.63,261.63,1027,76,100,6.77811,11.264000000000031
532,Gobabis,NA,1578152376,-22.45,18.97,28.74000000000001,301.89,301.89,1008,38,100,11.27448,83.73200000000003
533,Havelock,US,1578152263,34.88,-76.9,17.680000000000007,289.82,297.15,1009,100,90,12.750900000000001,75.2
534,Hobyo,SO,1578152101,5.35,48.53,26.379999999999995,299.53,299.53,1011,73,13,16.17351,79.484
535,Vincennes,FR,1578152376,48.85,2.44,8.129999999999995,280.37,282.15,1036,70,90,6.9347,48.2
536,Sawtell,AU,1578152118,-30.38,153.1,20.890000000000043,293.15,295.15,1011,83,0,9.1717,71.6
537,Mlimba,TZ,1578152377,-8.78,35.81,29.640000000000043,302.79,302.79,1009,72,66,2.43833,85.35200000000009
538,Locri,IT,1578152377,38.24,16.26,14.660000000000025,287.04,288.15,1022,62,40,3.3555,59.0
539,Copiapo,CL,1578152089,-27.37,-70.33,19.0,292.15,292.15,1018,68,90,9.1717,66.2
540,Maraba,BR,1578152377,-5.35,-49.1,26.0,299.15,299.15,1015,94,90,4.6977,78.80000000000001
541,Tual,ID,1578152377,-5.67,132.75,27.879999999999995,301.03,301.03,1007,81,96,20.51329,82.184
542,Anadyr,RU,1578152079,64.73,177.51,-34.99999999999997,238.15,238.15,1025,66,0,11.185,-30.99999999999995
543,Ballina,IE,1578152377,54.11,-9.15,8.960000000000036,281.15,283.15,1028,100,90,10.2902,50.0
544,Kalmunai,LK,1578152130,7.42,81.82,27.660000000000025,300.81,300.81,1012,78,9,10.7376,81.78800000000004
545,Toyooka,JP,1578152377,35.55,134.82,3.920000000000016,277.07,277.07,1021,81,98,12.191650000000001,39.056000000000026
546,Kasongo-Lunda,CD,1578152378,-6.48,16.82,24.390000000000043,297.54,297.54,1009,94,98,1.99093,75.90200000000007
547,Itacoatiara,BR,1578152378,-3.14,-58.44,31.939999999999998,305.09,305.09,1014,52,77,3.82527,89.49199999999999
548,Spearfish,US,1578152378,44.49,-103.86,3.670000000000016,269.26,283.15,1012,29,1,12.750900000000001,50.0
549,Bezerros,BR,1578152378,-8.24,-35.76,31.75,304.9,304.9,1012,37,86,7.1584,89.15
550,Muroto,JP,1578152378,33.37,134.14,2.8100000000000023,275.96,275.96,1021,79,0,5.010880000000001,37.05800000000001
551,Kasongo,CD,1578152378,-4.43,26.67,27.590000000000032,300.74,300.74,1007,87,88,3.0646900000000006,81.66200000000006
552,Ulaangom,MN,1578152378,49.98,92.07,-24.909999999999968,248.24,248.24,1037,91,50,2.25937,-12.837999999999944
553,Flin Flon,CA,1578152378,54.77,-101.88,-12.0,261.15,261.15,1010,92,90,5.8162,10.399999999999999
554,Senneterre,CA,1578152084,48.39,-77.24,-8.0,265.15,265.15,1009,92,90,5.8162,17.6
555,Awjilah,LY,1578152379,29.14,21.3,15.5,288.65,288.65,1023,50,33,13.108820000000001,59.900000000000006
556,Durazno,UY,1578152379,-33.38,-56.52,26.600000000000023,299.75,299.75,1015,40,0,8.14268,79.88000000000005
557,Matara,BI,1578152379,-3.48,29.48,18.879999999999995,292.03,292.03,1010,89,90,3.71342,65.984
558,Ergolding,DE,1578152379,48.58,12.17,2.980000000000018,274.82,277.15,1028,77,20,14.987900000000002,39.2
559,Sur,OM,1578152093,22.57,59.53,23.200000000000045,296.35,296.35,1016,61,0,11.744250000000001,73.76000000000008
560,Pouembout,NC,1578152379,-21.12,164.9,19.55000000000001,292.7,292.7,1013,89,12,3.17654,67.19000000000003
561,Areka,ET,1578152379,7.07,37.71,27.950000000000045,301.1,301.1,1012,36,100,2.97521,82.31000000000009
562,Tongzi,CN,1578152379,28.78,105.09,11.629999999999995,284.78,284.78,1017,60,100,0.76058,52.934
